_id,RSN,YEAR_REGISTERED,YEAR_EVALUATED,YEAR_BUILT,PROPERTY_TYPE,WARD,WARDNAME,SITE_ADDRESS,CONFIRMED_STOREYS,CONFIRMED_UNITS,EVALUATION_COMPLETED_ON,SCORE,RESULTS_OF_SCORE,NO_OF_AREAS_EVALUATED,ENTRANCE_LOBBY,ENTRANCE_DOORS_WINDOWS,SECURITY,STAIRWELLS,LAUNDRY_ROOMS,INTERNAL_GUARDS_HANDRAILS,GARBAGE_CHUTE_ROOMS,GARBAGE_BIN_STORAGE_AREA,ELEVATORS,STORAGE_AREAS_LOCKERS,INTERIOR_WALL_CEILING_FLOOR,INTERIOR_LIGHTING_LEVELS,GRAFFITI,EXTERIOR_CLADDING,EXTERIOR_GROUNDS,EXTERIOR_WALKWAYS,BALCONY_GUARDS,WATER_PEN_EXT_BLDG_ELEMENTS,PARKING_AREA,OTHER_FACILITIES,GRID,LATITUDE,LONGITUDE,geometry
2534266,5186997,,,2019.0,PRIVATE,12,Toronto-St. Paul's,200 MADISON AVE,6,82,2023-01-31,100,Evaluation needs to be conducted in 3 years,19,5.0,5.0,5.0,5.0,5.0,5.0,5.0,5.0,5.0,5.0,5.0,5.0,5.0,5.0,5.0,5.0,5.0,5.0,5.0,,S1237,43.676442017,-79.406812986,POINT (312299.706 4837164.375)
2534267,5118732,2022.0,,2021.0,PRIVATE,13,Toronto Centre,25 NICHOLAS AVE,29,346,2023-01-27,100,Evaluation needs to be conducted in 3 years,20,5.0,5.0,5.0,5.0,5.0,5.0,5.0,5.0,5.0,5.0,5.0,5.0,5.0,5.0,5.0,5.0,5.0,5.0,5.0,5.0,S1330,,,POINT (316225.666 4835308.898)
2534268,5156142,2023.0,,1889.0,PRIVATE,13,Toronto Centre,109 PEMBROKE ST,4,20,2023-01-27,67,Evaluation needs to be conducted in 2 years,14,3.0,4.0,3.0,3.0,2.0,3.0,,4.0,,,3.0,3.0,5.0,3.0,3.0,4.0,,4.0,,,S1328,43.660120206,-79.3728278301,POINT (315041.504 4835359.918)
2534269,5156127,2022.0,,1972.0,PRIVATE,13,Toronto Centre,33 WOOD ST,30,240,2023-01-24,93,Evaluation needs to be conducted in 3 years,20,5.0,5.0,5.0,5.0,5.0,5.0,4.0,4.0,4.0,5.0,5.0,4.0,5.0,5.0,5.0,5.0,4.0,4.0,4.0,5.0,S1326,43.662341118,-79.381432692,POINT (314346.855 4835606.614)
2534270,5156008,2022.0,,1885.0,PRIVATE,9,Davenport,267 BROCK AVE,3,11,2023-01-24,73,Evaluation needs to be conducted in 2 years,14,3.0,3.0,4.0,4.0,,4.0,,5.0,5.0,,3.0,4.0,3.0,2.0,4.0,3.0,,4.0,,,S0936,43.649450698,-79.435105646,POINT (310019.153 4834169.75)
2534271,5132414,2022.0,,2018.0,PRIVATE,11,University-Rosedale,55 GERRARD ST W,43,595,2023-01-24,99,Evaluation needs to be conducted in 3 years,19,5.0,5.0,5.0,4.0,,5.0,5.0,5.0,5.0,5.0,5.0,5.0,5.0,5.0,5.0,5.0,5.0,5.0,5.0,5.0,S1145,43.658443735,-79.383996717,POINT (314140.697 4835173.342)
2534272,5207679,2023.0,,2022.0,PRIVATE,12,Toronto-St. Paul's,215 LONSDALE RD,20,177,2023-01-23,100,Evaluation needs to be conducted in 3 years,19,5.0,5.0,5.0,5.0,,5.0,5.0,5.0,5.0,5.0,5.0,5.0,5.0,5.0,5.0,5.0,5.0,5.0,5.0,5.0,S1231,,,POINT (312559.07 4838724.578)
2534273,5175953,2022.0,,2022.0,PRIVATE,10,Spadina-Fort York,57 SPADINA AVE,36,286,2023-01-20,100,Evaluation needs to be conducted in 3 years,20,5.0,5.0,5.0,5.0,5.0,5.0,5.0,5.0,5.0,5.0,5.0,5.0,5.0,5.0,5.0,5.0,5.0,5.0,5.0,5.0,S1033,43.644956232,-79.394471437,POINT (313302.359 4833678.686)
2534274,4154229,2017.0,,1968.0,PRIVATE,7,Humber River-Black Creek,2770 JANE ST,4,144,2023-01-19,85,Evaluation needs to be conducted in 2 years,19,4.0,4.0,5.0,4.0,4.0,5.0,4.0,4.0,4.0,4.0,5.0,5.0,5.0,4.0,4.0,4.0,4.0,5.0,3.0,,W0729,43.7474006174,-79.5159466744,POINT (303500.287 4845048.686)
2534275,5156112,2022.0,,1958.0,PRIVATE,12,Toronto-St. Paul's,210 VAUGHAN RD,4,25,2023-01-19,75,Evaluation needs to be conducted in 2 years,15,3.0,3.0,5.0,5.0,3.0,4.0,,4.0,,,3.0,3.0,5.0,3.0,4.0,4.0,,4.0,3.0,,S1229,43.687311357,-79.423463821,POINT (310954.409 4838376.712)
2534276,5156053,2023.0,,2018.0,PRIVATE,12,Toronto-St. Paul's,109 VAUGHAN RD,9,51,2023-01-19,96,Evaluation needs to be conducted in 3 years,19,5.0,5.0,5.0,5.0,,5.0,5.0,5.0,5.0,5.0,5.0,5.0,1.0,5.0,5.0,5.0,5.0,5.0,5.0,5.0,S1229,43.6841957137,-79.4209646641,POINT (311156.469 4838029.782)
2534277,5199841,,,2021.0,PRIVATE,3,Etobicoke-Lakeshore,5249 DUNDAS ST W,42,333,2023-01-19,99,Evaluation needs to be conducted in 3 years,19,5.0,5.0,5.0,5.0,,5.0,5.0,5.0,5.0,5.0,4.0,5.0,5.0,5.0,5.0,5.0,5.0,5.0,5.0,5.0,W0323,,,POINT (301782.82 4832967.103)
2534278,5156165,2022.0,,1960.0,PRIVATE,20,Scarborough Southwest,568 BIRCHMOUNT RD,7,61,2023-01-18,83,Evaluation needs to be conducted in 2 years,19,5.0,3.0,5.0,5.0,5.0,3.0,5.0,5.0,5.0,3.0,3.0,3.0,5.0,3.0,5.0,5.0,5.0,3.0,3.0,,E2029,43.7127945342,-79.2713034993,POINT (323213.731 4841229.257)
2534279,5144479,2022.0,,2020.0,PRIVATE,4,Parkdale-High Park,55 QUEBEC AVE,25,264,2023-01-18,98,Evaluation needs to be conducted in 3 years,19,5.0,5.0,5.0,3.0,,5.0,5.0,5.0,5.0,5.0,5.0,5.0,5.0,5.0,5.0,5.0,5.0,5.0,5.0,5.0,S0428,,,POINT (307442.641 4834735.62)
2534280,5144485,2022.0,,2021.0,PRIVATE,4,Parkdale-High Park,50 HIGH PARK AVE,25,264,2023-01-18,98,Evaluation needs to be conducted in 3 years,19,5.0,5.0,5.0,3.0,,5.0,5.0,5.0,5.0,5.0,5.0,5.0,5.0,5.0,5.0,5.0,5.0,5.0,5.0,5.0,S0428,43.655497932,-79.466564069,POINT (307481.141 4834840.141)
2534281,4154257,2017.0,,1960.0,PRIVATE,7,Humber River-Black Creek,3 DAMASK AVE,3,10,2022-12-30,83,Evaluation needs to be conducted in 2 years,15,3.0,5.0,5.0,3.0,3.0,5.0,,4.0,,,3.0,5.0,5.0,4.0,5.0,5.0,,3.0,4.0,,W0728,43.7416935323,-79.5396641026,POINT (301589.804 4844415.332)
2534282,4155227,2017.0,,1957.0,PRIVATE,3,Etobicoke-Lakeshore,301 PARK LAWN RD,4,25,2022-12-30,76,Evaluation needs to be conducted in 2 years,18,4.0,4.0,5.0,3.0,4.0,5.0,,4.0,3.0,4.0,3.0,3.0,5.0,4.0,3.0,3.0,5.0,3.0,3.0,,W0329,43.6350512379,-79.4924601948,POINT (305392.658 4832567.215)
2534283,4155233,2017.0,,1955.0,PRIVATE,3,Etobicoke-Lakeshore,5 NEWHOLM RD,4,27,2022-12-30,68,Evaluation needs to be conducted in 2 years,17,3.0,3.0,5.0,3.0,4.0,4.0,,4.0,,3.0,3.0,3.0,4.0,2.0,4.0,3.0,3.0,3.0,4.0,,W0329,43.6356446898,-79.4874066551,POINT (305800.477 4832633.187)
2534284,4153885,2017.0,,1955.0,PRIVATE,12,Toronto-St. Paul's,567 AVENUE RD,11,63,2022-12-30,91,Evaluation needs to be conducted in 3 years,18,4.0,5.0,5.0,5.0,4.0,5.0,,5.0,5.0,5.0,4.0,5.0,5.0,4.0,4.0,5.0,5.0,4.0,3.0,,S1232,43.688402926,-79.401606294,POINT (312716.449 4838499.822)
2534285,4155235,2017.0,,1958.0,PRIVATE,3,Etobicoke-Lakeshore,169 BERRY RD,4,25,2022-12-30,81,Evaluation needs to be conducted in 2 years,17,4.0,4.0,5.0,4.0,4.0,4.0,,4.0,,3.0,5.0,5.0,4.0,3.0,4.0,4.0,5.0,4.0,3.0,,W0329,43.6371235205,-79.4874115114,POINT (305800.066 4832797.477)
2534286,4155297,2017.0,,1960.0,PRIVATE,3,Etobicoke-Lakeshore,2645 BLOOR ST W,5,42,2022-12-30,91,Evaluation needs to be conducted in 3 years,19,5.0,5.0,5.0,5.0,4.0,3.0,4.0,5.0,5.0,4.0,5.0,4.0,5.0,5.0,5.0,5.0,5.0,4.0,3.0,,W0327,43.648946892,-79.494356545,POINT (305239.348 4834111.89)
2534287,4155295,2017.0,,1927.0,PRIVATE,3,Etobicoke-Lakeshore,2651 BLOOR ST W,4,34,2022-12-30,74,Evaluation needs to be conducted in 2 years,17,3.0,4.0,5.0,3.0,2.0,4.0,,4.0,,3.0,3.0,4.0,5.0,4.0,3.0,5.0,4.0,4.0,3.0,,W0327,43.649230274,-79.495336571,POINT (305160.274 4834143.367)
2534288,4155294,2017.0,,1940.0,PRIVATE,3,Etobicoke-Lakeshore,2655 BLOOR ST W,5,45,2022-12-30,79,Evaluation needs to be conducted in 2 years,17,4.0,4.0,5.0,4.0,3.0,2.0,,4.0,,4.0,3.0,5.0,5.0,4.0,5.0,4.0,4.0,4.0,3.0,,W0327,43.6494614357,-79.495683937,POINT (305101.599 4834184.139)
2534289,4155494,2017.0,,1952.0,PRIVATE,3,Etobicoke-Lakeshore,2547 LAKE SHORE BLVD W,4,26,2022-12-30,78,Evaluation needs to be conducted in 2 years,16,4.0,4.0,4.0,4.0,3.0,3.0,,4.0,,4.0,4.0,5.0,5.0,3.0,5.0,3.0,,4.0,3.0,,W0336,43.609303547,-79.4892009672,POINT (305656.036 4829706.813)
2534290,4156367,2017.0,,1954.0,PRIVATE,5,York South-Weston,4 GREENBROOK DR,3,23,2022-12-30,79,Evaluation needs to be conducted in 2 years,15,3.0,5.0,5.0,3.0,4.0,3.0,,4.0,,,4.0,3.0,5.0,4.0,4.0,5.0,,4.0,3.0,,W0532,43.697269464,-79.4763543388,POINT (306690.437 4839479.496)
2534291,4154231,2017.0,,1970.0,PRIVATE,7,Humber River-Black Creek,2940 JANE ST,13,153,2022-12-30,82,Evaluation needs to be conducted in 2 years,18,5.0,4.0,5.0,4.0,5.0,4.0,4.0,3.0,4.0,,4.0,3.0,5.0,4.0,4.0,4.0,4.0,4.0,4.0,,W0729,43.753728376,-79.5177880102,POINT (303352.137 4845751.71)
2534292,4154233,2017.0,,1970.0,PRIVATE,7,Humber River-Black Creek,2970 JANE ST,14,164,2022-12-30,86,Evaluation needs to be conducted in 3 years,18,5.0,4.0,5.0,4.0,5.0,4.0,4.0,4.0,4.0,,4.0,5.0,5.0,4.0,4.0,4.0,4.0,4.0,4.0,,W0729,43.7553825332,-79.5178201808,POINT (303349.587 4845935.472)
2534293,4156565,2017.0,,1968.0,PRIVATE,5,York South-Weston,15 HARDING AVE,19,335,2022-12-30,74,Evaluation needs to be conducted in 2 years,20,5.0,4.0,5.0,3.0,3.0,3.0,4.0,4.0,4.0,2.0,3.0,5.0,5.0,3.0,3.0,4.0,4.0,4.0,2.0,4.0,W0528,,,POINT (304655.788 4839682.129)
2534294,4155481,2017.0,,1957.0,PRIVATE,3,Etobicoke-Lakeshore,2303 LAKE SHORE BLVD W,4,38,2022-12-30,96,Evaluation needs to be conducted in 3 years,15,5.0,4.0,5.0,5.0,5.0,5.0,,5.0,,,5.0,5.0,5.0,5.0,4.0,5.0,,4.0,5.0,,W0336,43.6181573986,-79.4862044027,POINT (305864.468 4830685.073)
2534295,4155480,2017.0,,1954.0,PRIVATE,3,Etobicoke-Lakeshore,2309 LAKE SHORE BLVD W,4,28,2022-12-30,70,Evaluation needs to be conducted in 2 years,16,3.0,3.0,4.0,3.0,3.0,4.0,,3.0,,2.0,3.0,4.0,5.0,4.0,3.0,4.0,,4.0,4.0,,W0336,43.6177159242,-79.4864921975,POINT (305843.963 4830639.407)
2534296,4155477,2017.0,,1958.0,PRIVATE,3,Etobicoke-Lakeshore,2355 LAKE SHORE BLVD W,4,86,2022-12-30,69,Evaluation needs to be conducted in 2 years,17,4.0,4.0,4.0,2.0,2.0,2.0,,3.0,4.0,,3.0,4.0,3.0,3.0,4.0,4.0,5.0,4.0,4.0,,W0336,43.616065741,-79.4876962773,POINT (305777.4 4830458.074)
2534297,4155476,2017.0,,1960.0,PRIVATE,3,Etobicoke-Lakeshore,2361 LAKE SHORE BLVD W,4,47,2022-12-30,82,Evaluation needs to be conducted in 2 years,17,4.0,5.0,5.0,4.0,3.0,4.0,,3.0,5.0,,4.0,5.0,3.0,4.0,5.0,4.0,4.0,3.0,5.0,,W0336,43.6158682454,-79.4878084713,POINT (305768.347 4830436.132)
2534298,4155475,2017.0,,1959.0,PRIVATE,3,Etobicoke-Lakeshore,2369 LAKE SHORE BLVD W,4,87,2022-12-30,74,Evaluation needs to be conducted in 2 years,17,3.0,3.0,5.0,3.0,4.0,4.0,,3.0,5.0,,3.0,4.0,4.0,4.0,3.0,3.0,4.0,3.0,5.0,,W0336,43.615736635,-79.4878821357,POINT (305762.403 4830421.51)
2534299,4155474,2017.0,,1970.0,PRIVATE,3,Etobicoke-Lakeshore,2377 LAKE SHORE BLVD W,4,23,2022-12-30,72,Evaluation needs to be conducted in 2 years,18,4.0,3.0,5.0,4.0,4.0,2.0,,3.0,3.0,3.0,3.0,3.0,5.0,3.0,5.0,3.0,4.0,4.0,4.0,,W0336,43.6154404667,-79.4878892475,POINT (305761.833 4830388.607)
2534300,4155488,2017.0,,1955.0,PRIVATE,3,Etobicoke-Lakeshore,2532 LAKE SHORE BLVD W,4,46,2022-12-30,75,Evaluation needs to be conducted in 2 years,15,5.0,4.0,5.0,3.0,3.0,2.0,,4.0,,,3.0,4.0,4.0,5.0,3.0,4.0,,4.0,3.0,,W0336,43.6109821847,-79.4903809388,POINT (305560.767 4829893.29)
2534301,4156439,2017.0,,1993.0,SOCIAL HOUSING,5,York South-Weston,33 GABIAN WAY,18,248,2022-12-30,89,Evaluation needs to be conducted in 3 years,19,5.0,5.0,5.0,4.0,5.0,5.0,4.0,4.0,4.0,5.0,5.0,4.0,5.0,4.0,5.0,5.0,,4.0,2.0,5.0,W0533,43.6931197205,-79.4688639232,POINT (307294.354 4839018.662)
2534302,4155473,2017.0,,1959.0,SOCIAL HOUSING,3,Etobicoke-Lakeshore,110 STANLEY AVE,3,16,2022-12-30,74,Evaluation needs to be conducted in 2 years,16,3.0,3.0,4.0,3.0,4.0,2.0,,5.0,,,3.0,4.0,5.0,4.0,4.0,4.0,3.0,4.0,4.0,,W0336,43.6151367665,-79.4949740706,POINT (305189.979 4830354.824)
2534303,4155234,2017.0,,1947.0,PRIVATE,3,Etobicoke-Lakeshore,3 NEWHOLM RD,4,25,2022-12-30,79,Evaluation needs to be conducted in 2 years,17,4.0,5.0,5.0,4.0,4.0,4.0,,3.0,,4.0,4.0,3.0,5.0,4.0,4.0,4.0,4.0,3.0,3.0,,W0329,43.6360787547,-79.4876301384,POINT (305782.438 4832681.407)
2534304,4155482,2017.0,,1951.0,PRIVATE,3,Etobicoke-Lakeshore,51 STANLEY AVE,3,12,2022-12-29,86,Evaluation needs to be conducted in 3 years,16,4.0,4.0,5.0,5.0,3.0,5.0,,5.0,,4.0,5.0,5.0,3.0,4.0,4.0,4.0,,5.0,4.0,,W0336,43.6160393846,-79.4896739143,POINT (305617.776 4830455.127)
2534305,4155256,2017.0,,1962.0,PRIVATE,3,Etobicoke-Lakeshore,3 HILL HEIGHTS RD,4,38,2022-12-29,74,Evaluation needs to be conducted in 2 years,17,3.0,4.0,5.0,3.0,3.0,4.0,,4.0,,2.0,3.0,4.0,5.0,3.0,4.0,4.0,5.0,4.0,3.0,,W0327,43.6382045659,-79.4931680835,POINT (305335.532 4832917.528)
2534306,4155305,2017.0,,1979.0,TCHC,3,Etobicoke-Lakeshore,41 MABELLE AVE,19,350,2022-12-29,91,Evaluation needs to be conducted in 3 years,19,5.0,5.0,5.0,4.0,5.0,5.0,4.0,4.0,5.0,,4.0,5.0,5.0,4.0,5.0,5.0,4.0,4.0,3.0,5.0,W0321,43.6448379761,-79.5277127601,POINT (302548.527 4833654.887)
2534307,4820405,2022.0,,1950.0,PRIVATE,3,Etobicoke-Lakeshore,2513 LAKE SHORE BLVD W,3,11,2022-12-29,81,Evaluation needs to be conducted in 2 years,15,4.0,4.0,4.0,4.0,3.0,4.0,,4.0,,4.0,4.0,5.0,5.0,4.0,4.0,4.0,,4.0,,,W0336,43.6117781476,-79.4895548881,POINT (305627.437 4829981.725)
2534308,4152905,2017.0,,1993.0,SOCIAL HOUSING,4,Parkdale-High Park,93 LAVINIA AVE,5,68,2022-12-29,91,Evaluation needs to be conducted in 3 years,19,5.0,5.0,5.0,5.0,4.0,5.0,5.0,4.0,4.0,,4.0,5.0,5.0,4.0,5.0,4.0,4.0,4.0,4.0,5.0,S0430,43.6473083382,-79.4777129608,POINT (306582.355 4833929.1)
2534309,4155228,2018.0,,1962.0,PRIVATE,3,Etobicoke-Lakeshore,9 KINSDALE BLVD,4,23,2022-12-29,86,Evaluation needs to be conducted in 3 years,16,4.0,4.0,5.0,5.0,5.0,4.0,,4.0,,4.0,4.0,5.0,5.0,3.0,4.0,5.0,,4.0,4.0,,W0329,43.6352649375,-79.4919665857,POINT (305432.484 4832590.959)
2534310,4155302,2017.0,,1974.0,PRIVATE,3,Etobicoke-Lakeshore,52 MABELLE AVE,22,310,2022-12-29,77,Evaluation needs to be conducted in 2 years,19,5.0,4.0,5.0,5.0,4.0,4.0,3.0,3.0,4.0,4.0,3.0,4.0,5.0,4.0,3.0,4.0,4.0,3.0,2.0,,W0321,43.6464029439,-79.5294506955,POINT (302408.377 4833828.787)
2534311,4155221,2017.0,,1970.0,PRIVATE,3,Etobicoke-Lakeshore,620 EVANS AVE,3,25,2022-12-29,71,Evaluation needs to be conducted in 2 years,17,4.0,2.0,5.0,4.0,3.0,3.0,,4.0,,4.0,3.0,4.0,5.0,3.0,4.0,4.0,3.0,3.0,2.0,,W0330,43.610802275,-79.550398922,POINT (300715.866 4829875.377)
2534312,4290959,2018.0,,1962.0,PRIVATE,3,Etobicoke-Lakeshore,25 ELIZABETH ST,3,29,2022-12-29,81,Evaluation needs to be conducted in 2 years,16,4.0,4.0,5.0,4.0,4.0,4.0,,3.0,,4.0,4.0,4.0,5.0,4.0,4.0,4.0,4.0,4.0,,,W0336,43.6135850358,-79.4949390042,POINT (305192.817 4830182.433)
2534313,4153574,2017.0,,1991.0,SOCIAL HOUSING,13,Toronto Centre,330 DUNDAS ST E,4,29,2022-12-29,60,Evaluation needs to be conducted in 1 year,15,3.0,3.0,5.0,3.0,3.0,3.0,,4.0,,,3.0,3.0,1.0,2.0,2.0,2.0,,4.0,,4.0,S1329,43.6587482686,-79.3702105377,POINT (315252.836 4835207.824)
2534314,4156523,2017.0,,1950.0,PRIVATE,2,Etobicoke Centre,4750 DUNDAS ST W,4,14,2022-12-29,86,Evaluation needs to be conducted in 3 years,14,5.0,4.0,5.0,4.0,4.0,2.0,,4.0,,,4.0,5.0,5.0,4.0,5.0,5.0,,4.0,,,W0229,43.652601481,-79.525645179,POINT (302689.552 4834490.961)
2534315,4156289,2017.0,,1950.0,PRIVATE,2,Etobicoke Centre,4752 DUNDAS ST W,4,14,2022-12-29,86,Evaluation needs to be conducted in 3 years,14,5.0,4.0,5.0,4.0,4.0,2.0,,4.0,,,4.0,5.0,5.0,4.0,5.0,5.0,,4.0,,,W0229,43.652394933,-79.525845839,POINT (302688.053 4834472.61)
2534316,4156225,2017.0,,1950.0,PRIVATE,2,Etobicoke Centre,4754 DUNDAS ST W,4,14,2022-12-29,86,Evaluation needs to be conducted in 3 years,14,5.0,4.0,5.0,4.0,4.0,2.0,,4.0,,,4.0,5.0,5.0,4.0,5.0,5.0,,4.0,,,W0229,43.652203577,-79.525983776,POINT (302683.101 4834465.154)
2534317,4155226,2017.0,,1947.0,PRIVATE,3,Etobicoke-Lakeshore,285 PARK LAWN RD,4,29,2022-12-29,73,Evaluation needs to be conducted in 2 years,17,3.0,4.0,4.0,3.0,4.0,3.0,,3.0,,3.0,3.0,5.0,5.0,4.0,3.0,3.0,5.0,3.0,4.0,,W0329,43.6345619465,-79.4922664925,POINT (305408.295 4832512.859)
2534318,4152911,2017.0,,1960.0,PRIVATE,4,Parkdale-High Park,111 RUNNYMEDE RD,4,16,2022-12-29,80,Evaluation needs to be conducted in 2 years,15,4.0,4.0,4.0,4.0,3.0,2.0,,4.0,,5.0,4.0,4.0,5.0,4.0,4.0,5.0,,4.0,,,S0430,43.6505719581,-79.4757413114,POINT (306741.319 4834291.715)
2534319,4153569,2017.0,,1988.0,SOCIAL HOUSING,13,Toronto Centre,223 SHERBOURNE ST,6,60,2022-12-29,54,Evaluation needs to be conducted in 1 year,17,2.0,3.0,5.0,1.0,2.0,3.0,2.0,3.0,3.0,,1.0,2.0,3.0,3.0,2.0,4.0,,4.0,,3.0,S1329,43.6582200015,-79.3706451728,POINT (315217.87 4835149.078)
2534320,4152898,2020.0,,1958.0,PRIVATE,4,Parkdale-High Park,93 COE HILL DR,4,33,2022-12-29,80,Evaluation needs to be conducted in 2 years,18,3.0,4.0,5.0,3.0,3.0,4.0,,4.0,4.0,5.0,4.0,4.0,5.0,4.0,4.0,4.0,4.0,4.0,4.0,,S0430,43.6414422476,-79.4724449481,POINT (307007.546 4833277.515)
2534321,4155375,2017.0,,1965.0,PRIVATE,2,Etobicoke Centre,287 MARKLAND DR,10,118,2022-12-29,80,Evaluation needs to be conducted in 2 years,19,3.0,4.0,5.0,4.0,4.0,4.0,3.0,4.0,4.0,5.0,3.0,4.0,5.0,4.0,4.0,3.0,5.0,4.0,4.0,,W0233,43.6275335945,-79.5780494311,POINT (298485.949 4831734.901)
2534322,4155237,2017.0,,1958.0,PRIVATE,3,Etobicoke-Lakeshore,8 NEWHOLM RD,4,26,2022-12-29,76,Evaluation needs to be conducted in 2 years,17,4.0,4.0,3.0,3.0,3.0,3.0,,3.0,,3.0,4.0,5.0,5.0,3.0,5.0,5.0,5.0,3.0,4.0,,W0329,43.6354822227,-79.4882224103,POINT (305734.649 4832615.13)
2534323,4152901,2017.0,,1957.0,PRIVATE,4,Parkdale-High Park,9 MORNINGSIDE AVE,4,36,2022-12-29,75,Evaluation needs to be conducted in 2 years,15,3.0,4.0,4.0,3.0,4.0,2.0,,4.0,4.0,,3.0,4.0,5.0,4.0,4.0,4.0,,4.0,,,S0430,43.645605233,-79.473469677,POINT (306924.468 4833740.943)
2534324,4155210,2017.0,,1949.0,PRIVATE,3,Etobicoke-Lakeshore,2688 BLOOR ST W,4,21,2022-12-29,83,Evaluation needs to be conducted in 2 years,15,4.0,4.0,5.0,4.0,4.0,3.0,,4.0,,,4.0,5.0,5.0,4.0,4.0,5.0,,3.0,4.0,,W0322,43.6503142619,-79.4971169059,POINT (305016.898 4834262.829)
2534325,4155211,2017.0,,1949.0,PRIVATE,3,Etobicoke-Lakeshore,2690 BLOOR ST W,4,18,2022-12-29,81,Evaluation needs to be conducted in 2 years,16,4.0,4.0,5.0,4.0,4.0,3.0,,4.0,,4.0,4.0,5.0,5.0,4.0,4.0,4.0,,3.0,4.0,,W0322,43.6503326449,-79.4973659893,POINT (304996.803 4834264.87)
2534326,4155212,2017.0,,1949.0,PRIVATE,3,Etobicoke-Lakeshore,2692-2694 BLOOR ST W,4,40,2022-12-29,79,Evaluation needs to be conducted in 2 years,15,4.0,4.0,5.0,4.0,3.0,3.0,,4.0,,,4.0,5.0,5.0,4.0,4.0,4.0,,3.0,3.0,,W0322,43.6502825734,-79.4978680746,POINT (304956.297 4834259.305)
2534327,4281915,2017.0,,1952.0,PRIVATE,2,Etobicoke Centre,6 BEXHILL CRT,4,13,2022-12-29,84,Evaluation needs to be conducted in 2 years,15,4.0,5.0,5.0,4.0,3.0,2.0,,4.0,,4.0,4.0,5.0,5.0,4.0,5.0,5.0,,4.0,,,W0229,43.662044955,-79.521338721,POINT (303063.01 4835567.277)
2534328,4281929,2017.0,,1952.0,PRIVATE,2,Etobicoke Centre,7 BEXHILL CRT,4,13,2022-12-29,83,Evaluation needs to be conducted in 2 years,15,4.0,4.0,5.0,4.0,4.0,2.0,,4.0,,4.0,4.0,4.0,5.0,4.0,5.0,5.0,,4.0,,,W0229,43.661751009,-79.521325389,POINT (303064.075 4835534.621)
2534329,4152903,2017.0,,1940.0,PRIVATE,4,Parkdale-High Park,2555 BLOOR ST W,4,34,2022-12-29,82,Evaluation needs to be conducted in 2 years,17,4.0,4.0,5.0,5.0,3.0,4.0,,5.0,,4.0,4.0,4.0,5.0,4.0,5.0,3.0,3.0,4.0,4.0,,S0430,43.6476402456,-79.4906914801,POINT (305535.289 4833965.806)
2534330,4152933,2017.0,,1973.0,PRIVATE,4,Parkdale-High Park,299 GLENLAKE AVE,30,233,2022-12-29,81,Evaluation needs to be conducted in 2 years,19,5.0,4.0,5.0,4.0,5.0,5.0,3.0,3.0,4.0,4.0,4.0,4.0,5.0,4.0,5.0,4.0,2.0,4.0,3.0,,S0428,43.656888484,-79.465364295,POINT (307575.602 4834997.723)
2534331,4152941,2017.0,,1958.0,PRIVATE,4,Parkdale-High Park,205 KEELE ST,4,42,2022-12-29,71,Evaluation needs to be conducted in 2 years,15,5.0,4.0,5.0,3.0,3.0,2.0,,3.0,,,4.0,4.0,5.0,3.0,3.0,3.0,,3.0,3.0,,S0429,43.6597146756,-79.4617878892,POINT (307866.434 4835307.806)
2534332,4155410,2017.0,,1962.0,PRIVATE,2,Etobicoke Centre,416 THE WESTWAY,9,103,2022-12-29,69,Evaluation needs to be conducted in 2 years,18,3.0,3.0,4.0,3.0,4.0,4.0,,2.0,4.0,5.0,2.0,4.0,5.0,3.0,4.0,3.0,3.0,3.0,3.0,,W0221,43.6840527547,-79.565694704,POINT (299487.999 4838013.037)
2534333,4155288,2017.0,,1960.0,PRIVATE,3,Etobicoke-Lakeshore,186 STEPHEN DR,5,48,2022-12-28,82,Evaluation needs to be conducted in 2 years,18,3.0,5.0,5.0,3.0,5.0,4.0,,3.0,5.0,4.0,3.0,4.0,5.0,5.0,4.0,4.0,5.0,3.0,4.0,,W0327,43.640530203,-79.488846855,POINT (305685.065 4833173.273)
2534334,4152620,2017.0,,1956.0,PRIVATE,20,Scarborough Southwest,68 HARRIS PARK DR,3,11,2022-12-28,78,Evaluation needs to be conducted in 2 years,17,4.0,4.0,5.0,4.0,4.0,4.0,,4.0,,2.0,3.0,4.0,5.0,3.0,4.0,4.0,,4.0,4.0,4.0,E2021,43.722488216,-79.2987114556,POINT (321002.536 4842300.513)
2534335,4155285,2017.0,,1950.0,PRIVATE,3,Etobicoke-Lakeshore,6 KINGS POINT DR,3,16,2022-12-28,68,Evaluation needs to be conducted in 2 years,17,3.0,3.0,4.0,3.0,3.0,4.0,,4.0,,4.0,2.0,4.0,5.0,2.0,4.0,2.0,4.0,3.0,4.0,,W0327,43.6396095695,-79.4936460031,POINT (305296.993 4833073.615)
2534336,4152690,2017.0,,1958.0,PRIVATE,20,Scarborough Southwest,709 KENNEDY RD,6,79,2022-12-28,76,Evaluation needs to be conducted in 2 years,18,4.0,4.0,4.0,4.0,4.0,4.0,,4.0,4.0,3.0,3.0,3.0,5.0,3.0,4.0,3.0,4.0,4.0,4.0,,E2023,43.7281374387,-79.2656668508,POINT (323663.167 4842935.041)
2534337,4152691,2018.0,,1958.0,PRIVATE,20,Scarborough Southwest,711 KENNEDY RD,6,79,2022-12-28,69,Evaluation needs to be conducted in 2 years,17,4.0,4.0,4.0,3.0,3.0,4.0,,4.0,4.0,,2.0,3.0,5.0,2.0,4.0,3.0,4.0,3.0,3.0,,E2023,43.7287077114,-79.2659054509,POINT (323643.766 4842998.342)
2534338,4152672,2017.0,,1957.0,PRIVATE,20,Scarborough Southwest,712 KENNEDY RD,4,49,2022-12-28,84,Evaluation needs to be conducted in 2 years,19,5.0,4.0,5.0,5.0,5.0,4.0,,5.0,4.0,5.0,4.0,4.0,5.0,3.0,4.0,4.0,3.0,5.0,3.0,3.0,E2023,43.728810664,-79.2674784317,POINT (323517.01 4843009.424)
2534339,4152673,2017.0,,1965.0,PRIVATE,20,Scarborough Southwest,720 KENNEDY RD,14,186,2022-12-28,78,Evaluation needs to be conducted in 2 years,19,4.0,3.0,4.0,4.0,4.0,4.0,4.0,4.0,4.0,4.0,4.0,4.0,5.0,3.0,3.0,3.0,4.0,5.0,4.0,,E2023,43.7295838093,-79.2673564135,POINT (323526.601 4843095.346)
2534340,4285401,2018.0,,1952.0,PRIVATE,20,Scarborough Southwest,6 FOLCROFT AVE,3,13,2022-12-28,75,Evaluation needs to be conducted in 2 years,16,3.0,4.0,4.0,3.0,3.0,4.0,,4.0,,3.0,4.0,4.0,5.0,3.0,4.0,3.0,,5.0,4.0,,E2035,43.700957687,-79.251492552,POINT (324829.314 4839934.355)
2534341,4155272,2017.0,,1955.0,PRIVATE,3,Etobicoke-Lakeshore,34 RIVERWOOD PKWY,4,35,2022-12-28,83,Evaluation needs to be conducted in 2 years,16,5.0,4.0,5.0,4.0,4.0,4.0,,4.0,,,4.0,5.0,4.0,3.0,5.0,3.0,5.0,3.0,4.0,,W0327,43.6397937003,-79.4903246449,POINT (305564.983 4833094.093)
2534342,4152629,2017.0,,1955.0,PRIVATE,21,Scarborough Centre,8 RANNOCK ST,4,33,2022-12-28,86,Evaluation needs to be conducted in 3 years,17,4.0,4.0,5.0,4.0,5.0,4.0,,4.0,,4.0,4.0,5.0,5.0,4.0,4.0,4.0,4.0,5.0,4.0,,E2131,43.7287170868,-79.3000634846,POINT (320891.929 4842992.248)
2534343,4269318,2017.0,,1958.0,PRIVATE,20,Scarborough Southwest,998 DANFORTH RD,3,21,2022-12-28,71,Evaluation needs to be conducted in 2 years,16,3.0,3.0,4.0,4.0,4.0,4.0,,4.0,,4.0,3.0,3.0,5.0,3.0,4.0,3.0,,4.0,2.0,,E2024,43.7352342615,-79.2476716721,POINT (325110.51 4843727.705)
2534344,4155230,2018.0,,1959.0,PRIVATE,3,Etobicoke-Lakeshore,65 CLOVERHILL RD,4,24,2022-12-28,75,Evaluation needs to be conducted in 2 years,17,4.0,4.0,5.0,4.0,3.0,4.0,,4.0,,3.0,3.0,5.0,5.0,3.0,4.0,4.0,3.0,3.0,3.0,,W0329,43.6354908958,-79.4906112543,POINT (305541.855 4832616.072)
2534345,4155485,2017.0,,1957.0,PRIVATE,3,Etobicoke-Lakeshore,12 ALBERT AVE,3,12,2022-12-28,76,Evaluation needs to be conducted in 2 years,16,4.0,4.0,4.0,4.0,2.0,3.0,,4.0,,4.0,4.0,4.0,5.0,4.0,4.0,4.0,,3.0,4.0,,W0336,43.6158886447,-79.4889237637,POINT (305678.326 4830438.387)
2534346,4155484,2017.0,,1950.0,PRIVATE,3,Etobicoke-Lakeshore,16 ALBERT AVE,3,18,2022-12-28,80,Evaluation needs to be conducted in 2 years,15,4.0,3.0,5.0,4.0,3.0,4.0,,4.0,,,5.0,4.0,4.0,5.0,3.0,3.0,,5.0,4.0,,W0336,43.6159770796,-79.4891131322,POINT (305663.04 4830448.21)
2534347,4848750,2021.0,,1954.0,PRIVATE,19,Beaches-East York,996 O'CONNOR DR,3,18,2022-12-28,71,Evaluation needs to be conducted in 2 years,16,3.0,3.0,4.0,4.0,3.0,4.0,,4.0,,4.0,3.0,3.0,5.0,3.0,4.0,3.0,,4.0,3.0,,S1921,43.7091752019,-79.3105723901,POINT (320050.275 4840819.291)
2534348,4155309,2017.0,,1959.0,PRIVATE,3,Etobicoke-Lakeshore,22 BURNHAMTHORPE RD,5,42,2022-12-28,73,Evaluation needs to be conducted in 2 years,18,3.0,3.0,5.0,3.0,4.0,4.0,,3.0,4.0,4.0,2.0,4.0,5.0,3.0,4.0,3.0,4.0,3.0,5.0,,W0321,43.648227444,-79.530348478,POINT (302335.758 4834032.463)
2534349,4155308,2017.0,,1959.0,PRIVATE,3,Etobicoke-Lakeshore,24 BURNHAMTHORPE RD,5,42,2022-12-28,69,Evaluation needs to be conducted in 2 years,18,4.0,3.0,5.0,3.0,3.0,4.0,,4.0,4.0,3.0,2.0,4.0,3.0,3.0,3.0,3.0,4.0,3.0,4.0,,W0321,43.648421735,-79.530760922,POINT (302302.494 4834054.061)
2534350,4155470,2017.0,,1977.0,TCHC,3,Etobicoke-Lakeshore,100 CAVELL AVE,7,300,2022-12-28,86,Evaluation needs to be conducted in 3 years,19,4.0,5.0,5.0,4.0,5.0,5.0,4.0,4.0,4.0,,4.0,5.0,5.0,4.0,4.0,3.0,5.0,4.0,3.0,5.0,W0336,43.6154876721,-79.4969959174,POINT (305026.782 4830393.808)
2534351,4155278,2017.0,,1950.0,PRIVATE,3,Etobicoke-Lakeshore,158 BERRY RD,4,30,2022-12-28,74,Evaluation needs to be conducted in 2 years,17,4.0,4.0,5.0,3.0,3.0,2.0,,4.0,,3.0,3.0,4.0,5.0,3.0,4.0,5.0,3.0,4.0,4.0,,W0327,43.6372671432,-79.489657597,POINT (305618.818 4832813.412)
2534352,4155492,2017.0,,1952.0,PRIVATE,3,Etobicoke-Lakeshore,2555 LAKE SHORE BLVD W,4,26,2022-12-28,76,Evaluation needs to be conducted in 2 years,15,4.0,4.0,5.0,4.0,3.0,2.0,,4.0,,,4.0,5.0,5.0,3.0,4.0,4.0,,3.0,3.0,,W0336,43.6090432374,-79.4898363283,POINT (305704.944 4829683.294)
2534353,4155490,2017.0,,1952.0,PRIVATE,3,Etobicoke-Lakeshore,2559 LAKE SHORE BLVD W,4,26,2022-12-28,81,Evaluation needs to be conducted in 2 years,15,4.0,4.0,5.0,4.0,3.0,3.0,,3.0,,,4.0,5.0,5.0,4.0,5.0,4.0,,4.0,4.0,,W0336,43.6090936183,-79.4886161506,POINT (305607.776 4829677.695)
2534354,4155489,2017.0,,1952.0,PRIVATE,3,Etobicoke-Lakeshore,2561 LAKE SHORE BLVD W,4,14,2022-12-28,81,Evaluation needs to be conducted in 2 years,14,4.0,4.0,5.0,4.0,,3.0,,4.0,,,4.0,5.0,5.0,4.0,5.0,3.0,,4.0,3.0,,W0336,43.6088644692,-79.4900435258,POINT (305588.026 4829658.026)
2534355,4155487,2017.0,,1965.0,PRIVATE,3,Etobicoke-Lakeshore,2 SUPERIOR AVE,5,47,2022-12-28,80,Evaluation needs to be conducted in 2 years,17,4.0,5.0,4.0,3.0,4.0,4.0,,5.0,4.0,,3.0,4.0,5.0,4.0,5.0,3.0,4.0,4.0,3.0,,W0336,43.6143308517,-79.4872977904,POINT (305809.589 4830265.341)
2534356,4155843,2017.0,,1952.0,PRIVATE,20,Scarborough Southwest,3214 ST CLAIR AVE E,3,16,2022-12-23,91,Evaluation needs to be conducted in 3 years,15,4.0,4.0,5.0,5.0,5.0,4.0,,5.0,,,4.0,5.0,5.0,5.0,4.0,3.0,,5.0,5.0,,E2021,43.7104704684,-79.2900582076,POINT (321703.085 4840967.096)
2534357,4154885,2017.0,,1964.0,PRIVATE,16,Don Valley East,1850 VICTORIA PARK AVE,15,240,2022-12-23,85,Evaluation needs to be conducted in 2 years,19,4.0,5.0,5.0,3.0,4.0,4.0,3.0,5.0,3.0,4.0,4.0,5.0,5.0,4.0,5.0,5.0,5.0,4.0,4.0,,N1628,43.7409546826,-79.3112631324,POINT (319986.585 4844349.647)
2534358,4155564,2017.0,,1970.0,TCHC,20,Scarborough Southwest,3479 ST CLAIR AVE E,8,94,2022-12-23,78,Evaluation needs to be conducted in 2 years,19,4.0,4.0,4.0,3.0,4.0,4.0,4.0,4.0,4.0,3.0,3.0,4.0,5.0,4.0,4.0,4.0,4.0,4.0,4.0,,E2030,43.7142950675,-79.2692166242,POINT (323381.434 4841396.427)
2534359,4154915,2017.0,,1961.0,PRIVATE,16,Don Valley East,1325 YORK MILLS RD,4,64,2022-12-23,79,Evaluation needs to be conducted in 2 years,18,4.0,5.0,5.0,4.0,3.0,4.0,4.0,4.0,3.0,,4.0,5.0,4.0,3.0,4.0,4.0,4.0,3.0,4.0,,N1625,43.7616285056,-79.3217659908,POINT (319135.683 4846644.525)
2534360,4245705,2017.0,,1967.0,PRIVATE,3,Etobicoke-Lakeshore,359 KIPLING AVE,3,12,2022-12-23,85,Evaluation needs to be conducted in 2 years,16,4.0,5.0,3.0,4.0,5.0,4.0,,5.0,,5.0,5.0,5.0,5.0,4.0,5.0,2.0,,4.0,3.0,,W0335,43.6009938518,-79.5179299016,POINT (303336.876 4828783.712)
2534361,4154246,2017.0,,1972.0,PRIVATE,7,Humber River-Black Creek,2405 FINCH AVE W,27,258,2022-12-23,75,Evaluation needs to be conducted in 2 years,19,4.0,4.0,4.0,2.0,4.0,3.0,3.0,4.0,5.0,,3.0,4.0,5.0,4.0,4.0,3.0,4.0,4.0,3.0,4.0,W0727,43.750621289,-79.544032103,POINT (301238.257 4845408.296)
2534362,4154251,2018.0,,1993.0,SOCIAL HOUSING,7,Humber River-Black Creek,3001 FINCH AVE W,14,166,2022-12-23,80,Evaluation needs to be conducted in 2 years,19,5.0,4.0,5.0,4.0,4.0,4.0,4.0,4.0,5.0,,3.0,5.0,3.0,4.0,3.0,4.0,4.0,4.0,3.0,4.0,W0727,43.747070571,-79.562597925,POINT (299742.782 4845014.81)
2534363,4156195,2017.0,,1967.0,TCHC,7,Humber River-Black Creek,415 DRIFTWOOD AVE,16,135,2022-12-23,81,Evaluation needs to be conducted in 2 years,17,4.0,4.0,5.0,4.0,4.0,4.0,,3.0,4.0,,4.0,4.0,5.0,5.0,3.0,3.0,4.0,5.0,4.0,,W0725,43.7673194757,-79.5164765451,POINT (303458.049 4847261.584)
2534364,4154259,2017.0,,1984.0,TCHC,7,Humber River-Black Creek,3101 WESTON RD,18,176,2022-12-23,61,Evaluation needs to be conducted in 1 year,20,3.0,3.0,4.0,1.0,4.0,2.0,2.0,4.0,4.0,2.0,2.0,4.0,2.0,4.0,3.0,4.0,3.0,4.0,3.0,3.0,W0733,43.733312244,-79.537225843,POINT (301785.494 4843485.091)
2534365,4156048,2017.0,,1960.0,PRIVATE,20,Scarborough Southwest,24 PELL ST,3,11,2022-12-23,87,Evaluation needs to be conducted in 3 years,15,5.0,2.0,5.0,4.0,,5.0,,5.0,,5.0,3.0,4.0,5.0,5.0,4.0,3.0,,5.0,5.0,,E2035,43.708100911,-79.248499263,POINT (325056.883 4840728.747)
2534366,4152679,2017.0,,1971.0,PRIVATE,20,Scarborough Southwest,2225 EGLINTON AVE E,6,94,2022-12-23,91,Evaluation needs to be conducted in 3 years,18,5.0,4.0,5.0,5.0,5.0,3.0,5.0,5.0,5.0,,4.0,4.0,5.0,2.0,5.0,5.0,5.0,5.0,5.0,,E2023,43.729677828,-79.276229104,POINT (322811.499 4843104.772)
2534367,4155562,2017.0,,1971.0,TCHC,20,Scarborough Southwest,40 TEESDALE PL,24,278,2022-12-23,71,Evaluation needs to be conducted in 2 years,18,4.0,3.0,4.0,3.0,3.0,4.0,4.0,4.0,3.0,,3.0,4.0,3.0,3.0,4.0,3.0,4.0,5.0,3.0,,E2028,43.6972076653,-79.2864410678,POINT (321998.393 4839494.37)
2534368,4888795,2021.0,,1951.0,PRIVATE,19,Beaches-East York,1000 O'CONNOR DR,3,12,2022-12-23,77,Evaluation needs to be conducted in 2 years,14,4.0,2.0,4.0,4.0,,5.0,,4.0,,,3.0,4.0,5.0,4.0,4.0,4.0,,5.0,2.0,,S1921,43.7092735859,-79.3104170385,POINT (320062.769 4840830.249)
2534369,4156385,2017.0,,1940.0,PRIVATE,20,Scarborough Southwest,1481 KINGSTON RD,3,15,2022-12-23,76,Evaluation needs to be conducted in 2 years,16,4.0,4.0,5.0,4.0,4.0,4.0,,4.0,,3.0,4.0,3.0,5.0,3.0,4.0,2.0,,5.0,3.0,,E2034,43.688423918,-79.269500963,POINT (323393.784 4838549.187)
2534370,4155804,2017.0,,1950.0,PRIVATE,20,Scarborough Southwest,1625 KINGSTON RD,3,11,2022-12-23,81,Evaluation needs to be conducted in 2 years,16,4.0,4.0,3.0,4.0,4.0,2.0,,5.0,,3.0,4.0,3.0,5.0,5.0,4.0,5.0,,5.0,5.0,,E2034,43.690864521,-79.265477585,POINT (323718.011 4838812.556)
2534371,4154886,2017.0,,1964.0,PRIVATE,16,Don Valley East,1840 VICTORIA PARK AVE,12,204,2022-12-23,80,Evaluation needs to be conducted in 2 years,19,4.0,5.0,5.0,3.0,4.0,4.0,4.0,5.0,3.0,4.0,4.0,4.0,5.0,3.0,4.0,4.0,4.0,3.0,4.0,,N1628,43.7404974664,-79.3102350058,POINT (320069.513 4844299.041)
2534372,4156305,2017.0,,1952.0,PRIVATE,20,Scarborough Southwest,3218 ST CLAIR AVE E,3,16,2022-12-23,79,Evaluation needs to be conducted in 2 years,15,4.0,3.0,5.0,4.0,4.0,4.0,,4.0,,,4.0,4.0,5.0,3.0,4.0,3.0,,4.0,4.0,,E2021,43.7103165144,-79.2898372595,POINT (321720.933 4840950.037)
2534373,4167767,2017.0,,1974.0,TCHC,5,York South-Weston,710 TRETHEWEY DR,19,165,2022-12-22,89,Evaluation needs to be conducted in 3 years,18,5.0,5.0,5.0,4.0,3.0,5.0,5.0,5.0,4.0,,3.0,5.0,5.0,4.0,5.0,4.0,5.0,4.0,4.0,,W0528,43.697803447,-79.499827299,POINT (304798.114 4839539.581)
2534374,4153236,2017.0,,1967.0,PRIVATE,11,University-Rosedale,280 ST GEORGE ST,15,85,2022-12-22,91,Evaluation needs to be conducted in 3 years,19,4.0,5.0,5.0,4.0,4.0,4.0,5.0,4.0,4.0,5.0,4.0,5.0,5.0,5.0,4.0,5.0,5.0,5.0,4.0,,S1127,43.673984446,-79.4033081754,POINT (312581.298 4836896.819)
2534375,4155225,2017.0,,1973.0,PRIVATE,3,Etobicoke-Lakeshore,8 LOMOND DR,24,183,2022-12-22,75,Evaluation needs to be conducted in 2 years,19,4.0,4.0,5.0,3.0,3.0,3.0,3.0,4.0,5.0,3.0,4.0,4.0,4.0,4.0,5.0,3.0,4.0,3.0,3.0,,W0325,43.6463454422,-79.5227554263,POINT (302948.491 4833822.241)
2534376,4155287,2017.0,,1954.0,PRIVATE,3,Etobicoke-Lakeshore,2 KINGS POINT DR,4,16,2022-12-22,85,Evaluation needs to be conducted in 2 years,17,4.0,5.0,5.0,4.0,3.0,5.0,,5.0,,3.0,4.0,5.0,5.0,4.0,4.0,4.0,5.0,3.0,4.0,,W0327,43.639372903,-79.4944231531,POINT (305234.286 4833047.319)
2534377,4155286,2017.0,,1954.0,PRIVATE,3,Etobicoke-Lakeshore,4 KINGS POINT DR,4,16,2022-12-22,79,Evaluation needs to be conducted in 2 years,17,5.0,4.0,5.0,4.0,2.0,4.0,,5.0,,3.0,4.0,5.0,5.0,3.0,3.0,4.0,5.0,3.0,3.0,,W0327,43.6395029387,-79.4940316467,POINT (305265.876 4833061.767)
2534378,4155284,2018.0,,1953.0,PRIVATE,3,Etobicoke-Lakeshore,8 KINGS POINT DR,5,16,2022-12-22,69,Evaluation needs to be conducted in 2 years,16,4.0,4.0,4.0,3.0,3.0,2.0,,4.0,,,2.0,4.0,5.0,3.0,4.0,3.0,4.0,3.0,3.0,,W0327,43.6396821871,-79.4933367622,POINT (305321.945 4833081.684)
2534379,4155243,2017.0,,1954.0,PRIVATE,3,Etobicoke-Lakeshore,12 KINSDALE BLVD,4,16,2022-12-22,95,Evaluation needs to be conducted in 3 years,17,5.0,5.0,5.0,5.0,4.0,5.0,,4.0,,5.0,5.0,5.0,5.0,5.0,5.0,3.0,5.0,5.0,5.0,,W0329,43.6356967623,-79.4921362887,POINT (305418.785 4832638.931)
2534380,4155993,2017.0,,1973.0,PRIVATE,5,York South-Weston,2460 WESTON RD,27,214,2022-12-22,84,Evaluation needs to be conducted in 2 years,19,5.0,4.0,5.0,3.0,4.0,5.0,3.0,1.0,5.0,3.0,4.0,5.0,5.0,5.0,4.0,5.0,5.0,5.0,4.0,,W0521,43.7078718117,-79.5341521524,POINT (302032.14 4840657.833)
2534381,4153514,2017.0,,1970.0,PRIVATE,13,Toronto Centre,15 DUNDONALD ST,24,172,2022-12-22,72,Evaluation needs to be conducted in 2 years,17,4.0,4.0,4.0,2.0,4.0,4.0,3.0,4.0,,,3.0,2.0,4.0,3.0,4.0,4.0,4.0,4.0,,4.0,S1322,43.665727503,-79.383887543,POINT (314148.344 4835982.525)
2534382,4226941,2017.0,,1993.0,SOCIAL HOUSING,3,Etobicoke-Lakeshore,781 THE QUEENSWAY,3,66,2022-12-22,93,Evaluation needs to be conducted in 3 years,18,5.0,5.0,5.0,5.0,5.0,5.0,4.0,5.0,3.0,,3.0,5.0,5.0,5.0,5.0,5.0,,5.0,4.0,5.0,W0326,43.6254472366,-79.5057604061,POINT (304305.579 4831500.434)
2534383,4261157,,,1957.0,PRIVATE,3,Etobicoke-Lakeshore,103 SIXTEENTH ST,3,10,2022-12-22,57,Evaluation needs to be conducted in 1 year,15,3.0,3.0,3.0,4.0,2.0,1.0,,5.0,,,3.0,3.0,5.0,2.0,2.0,4.0,,2.0,1.0,,W0335,43.6028075946,-79.5164885645,POINT (303453.266 4828985.195)
2534384,4155290,2017.0,,1958.0,PRIVATE,3,Etobicoke-Lakeshore,33 RIVERWOOD PKWY,4,50,2022-12-22,87,Evaluation needs to be conducted in 3 years,18,5.0,5.0,5.0,4.0,4.0,5.0,,5.0,5.0,3.0,3.0,5.0,5.0,4.0,4.0,5.0,5.0,3.0,3.0,,W0327,43.6402119345,-79.4896809434,POINT (305616.916 4833140.562)
2534385,4153789,2017.0,,1958.0,PRIVATE,15,Don Valley West,75 PETMAN AVE,3,26,2022-12-22,80,Evaluation needs to be conducted in 2 years,14,4.0,4.0,4.0,4.0,4.0,3.0,,4.0,,,4.0,4.0,5.0,4.0,4.0,4.0,,4.0,,,N1530,43.708920433,-79.384300946,POINT (314108.39 4840781.103)
2534386,4153918,2017.0,,1918.0,PRIVATE,12,Toronto-St. Paul's,62 ORIOLE GDNS,3,13,2022-12-22,65,Evaluation needs to be conducted in 1 year,15,3.0,4.0,5.0,3.0,3.0,3.0,,3.0,,3.0,3.0,2.0,5.0,3.0,3.0,3.0,,3.0,,,S1232,43.690570503,-79.400460705,POINT (312808.514 4838740.742)
2534387,4155222,2017.0,,1993.0,SOCIAL HOUSING,3,Etobicoke-Lakeshore,773 THE QUEENSWAY,3,63,2022-12-22,91,Evaluation needs to be conducted in 3 years,20,5.0,5.0,5.0,4.0,5.0,4.0,5.0,5.0,4.0,4.0,3.0,5.0,5.0,4.0,5.0,4.0,5.0,5.0,4.0,5.0,W0326,43.625636744,-79.504530803,POINT (304383.661 4831516.423)
2534388,4153590,2017.0,,1934.0,PRIVATE,13,Toronto Centre,435 SHERBOURNE ST,4,48,2022-12-22,70,Evaluation needs to be conducted in 2 years,14,3.0,3.0,5.0,3.0,3.0,3.0,,3.0,,,3.0,4.0,5.0,4.0,3.0,3.0,,4.0,,,S1323,43.6655473564,-79.3735085585,POINT (314985.686 4835962.758)
2534389,4154085,2017.0,,2012.0,SOCIAL HOUSING,14,Toronto-Danforth,270 DONLANDS AVE,8,44,2022-12-22,84,Evaluation needs to be conducted in 2 years,18,5.0,4.0,5.0,4.0,4.0,4.0,4.0,4.0,4.0,4.0,5.0,4.0,5.0,4.0,4.0,4.0,,4.0,,4.0,S1422,43.6901052164,-79.3416209783,POINT (317552.137 4838695.398)
2534390,4255506,2017.0,,1957.0,PRIVATE,3,Etobicoke-Lakeshore,1 NEWHOLM RD,4,27,2022-12-22,88,Evaluation needs to be conducted in 3 years,17,4.0,5.0,5.0,4.0,4.0,2.0,,5.0,,5.0,5.0,3.0,5.0,5.0,5.0,5.0,5.0,5.0,3.0,,W0329,43.63650442,-79.4877435636,POINT (305773.28 4832728.695)
2534391,4154084,2017.0,,1957.0,PRIVATE,14,Toronto-Danforth,470 MORTIMER AVE,4,42,2022-12-22,79,Evaluation needs to be conducted in 2 years,17,4.0,4.0,3.0,4.0,4.0,4.0,,4.0,,4.0,4.0,4.0,5.0,4.0,4.0,3.0,4.0,4.0,4.0,,S1426,43.6897638166,-79.3320473561,POINT (318323.973 4838658.984)
2534392,4155258,2017.0,,1952.0,PRIVATE,3,Etobicoke-Lakeshore,1 CROWN HILL PL,4,33,2022-12-22,89,Evaluation needs to be conducted in 3 years,17,5.0,4.0,5.0,4.0,4.0,4.0,,4.0,,4.0,5.0,5.0,5.0,4.0,5.0,4.0,5.0,5.0,4.0,,W0327,43.6384647272,-79.4918242158,POINT (305443.979 4832946.44)
2534393,4155263,2017.0,,1958.0,PRIVATE,3,Etobicoke-Lakeshore,7 CROWN HILL PL,4,35,2022-12-22,84,Evaluation needs to be conducted in 2 years,17,3.0,5.0,5.0,4.0,3.0,3.0,,5.0,,5.0,4.0,5.0,5.0,4.0,4.0,5.0,4.0,3.0,4.0,,W0327,43.6386262832,-79.4911761302,POINT (305496.279 4832964.393)
2534394,4155215,2017.0,,1954.0,PRIVATE,3,Etobicoke-Lakeshore,100 BROWNS LINE,3,22,2022-12-22,86,Evaluation needs to be conducted in 3 years,16,4.0,5.0,5.0,4.0,4.0,3.0,,5.0,,3.0,4.0,5.0,5.0,3.0,5.0,5.0,,4.0,5.0,,W0330,43.5952200747,-79.5429727048,POINT (301314.74 4828143.037)
2534395,4152917,2017.0,,1935.0,PRIVATE,4,Parkdale-High Park,7 BRULE TER,3,13,2022-12-22,83,Evaluation needs to be conducted in 2 years,16,4.0,4.0,4.0,4.0,3.0,4.0,,3.0,,,4.0,5.0,5.0,5.0,4.0,4.0,3.0,5.0,5.0,,S0430,43.6475612545,-79.4890462091,POINT (305668.015 4833957.046)
2534396,4155751,2017.0,,1969.0,PRIVATE,5,York South-Weston,1465 LAWRENCE AVE W,20,161,2022-12-22,88,Evaluation needs to be conducted in 3 years,19,5.0,4.0,5.0,4.0,4.0,5.0,,4.0,4.0,3.0,4.0,5.0,5.0,5.0,5.0,4.0,4.0,5.0,4.0,5.0,W0529,43.7073903147,-79.4803989264,POINT (306364.173 4840603.819)
2534397,4153640,2017.0,,1965.0,PRIVATE,14,Toronto-Danforth,1395 GERRARD ST E,3,12,2022-12-22,66,Evaluation needs to be conducted in 2 years,14,3.0,4.0,4.0,2.0,3.0,3.0,,4.0,,,2.0,4.0,2.0,3.0,4.0,4.0,,4.0,,,S1439,43.671588843,-79.324094142,POINT (318969.114 4836642.122)
2534398,4152932,2017.0,,1926.0,PRIVATE,4,Parkdale-High Park,5 HIGH PARK AVE,3,21,2022-12-22,73,Evaluation needs to be conducted in 2 years,14,4.0,3.0,3.0,3.0,3.0,3.0,,4.0,,,3.0,4.0,5.0,4.0,4.0,4.0,,4.0,,,S0428,43.6538760484,-79.4649817406,POINT (307609.129 4834659.06)
2534399,4233372,2017.0,,1975.0,PRIVATE,12,Toronto-St. Paul's,40 SOUDAN AVE,14,66,2022-12-22,96,Evaluation needs to be conducted in 3 years,18,5.0,5.0,5.0,4.0,5.0,5.0,5.0,5.0,5.0,4.0,4.0,5.0,5.0,5.0,5.0,5.0,,5.0,4.0,,S1228,43.7049414095,-79.3965572814,POINT (313121.445 4840336.79)
2534400,4155859,2017.0,,1960.0,PRIVATE,13,Toronto Centre,433 JARVIS ST,9,144,2022-12-22,77,Evaluation needs to be conducted in 2 years,14,3.0,3.0,5.0,4.0,3.0,4.0,,4.0,,,4.0,3.0,5.0,4.0,4.0,4.0,,4.0,,,S1326,43.6639097135,-79.3766153717,POINT (314735.394 4835780.455)
2534401,4153639,2019.0,,1915.0,PRIVATE,14,Toronto-Danforth,279 WOODFIELD RD,4,42,2022-12-22,74,Evaluation needs to be conducted in 2 years,13,3.0,4.0,4.0,3.0,,4.0,,5.0,,,1.0,4.0,5.0,3.0,4.0,4.0,,4.0,,,S1439,43.671655465,-79.323701099,POINT (319000.793 4836649.59)
2534402,4156295,2017.0,,1967.0,PRIVATE,5,York South-Weston,1765 WESTON RD,25,246,2022-12-22,66,Evaluation needs to be conducted in 2 years,19,4.0,3.0,5.0,2.0,2.0,3.0,3.0,4.0,4.0,3.0,2.0,4.0,1.0,4.0,4.0,3.0,4.0,5.0,3.0,,W0527,43.6990639559,-79.5119719596,POINT (303819.476 4839678.778)
2534403,4155500,2017.0,,1952.0,PRIVATE,3,Etobicoke-Lakeshore,2521 LAKE SHORE BLVD W,3,37,2022-12-21,83,Evaluation needs to be conducted in 2 years,16,4.0,4.0,5.0,5.0,4.0,4.0,,4.0,,3.0,4.0,5.0,4.0,3.0,5.0,4.0,,4.0,4.0,,W0336,43.6101831739,-79.4899009077,POINT (305599.525 4829804.528)
2534404,4156736,2017.0,,1951.0,PRIVATE,3,Etobicoke-Lakeshore,135 EIGHTH ST,4,47,2022-12-21,84,Evaluation needs to be conducted in 2 years,15,4.0,4.0,5.0,4.0,4.0,2.0,,5.0,,,5.0,5.0,5.0,4.0,5.0,5.0,,3.0,3.0,,W0335,43.601151061,-79.506439811,POINT (304264.189 4828802.019)
2534405,4152580,2017.0,,1971.0,PRIVATE,20,Scarborough Southwest,27 GLEN EVEREST RD,3,11,2022-12-21,79,Evaluation needs to be conducted in 2 years,16,4.0,4.0,3.0,3.0,4.0,4.0,,4.0,,4.0,3.0,4.0,5.0,4.0,4.0,5.0,,4.0,4.0,,E2035,43.7005566696,-79.2528798583,POINT (324702.426 4839873.966)
2534406,4156738,2017.0,,1951.0,PRIVATE,3,Etobicoke-Lakeshore,170 ISLINGTON AVE,4,47,2022-12-21,79,Evaluation needs to be conducted in 2 years,16,4.0,3.0,5.0,4.0,5.0,2.0,,4.0,,3.0,4.0,5.0,5.0,3.0,5.0,4.0,,4.0,3.0,,W0335,43.602358477,-79.506187032,POINT (304284.602 4828936.156)
2534407,4156737,2017.0,,1951.0,PRIVATE,3,Etobicoke-Lakeshore,148 ISLINGTON AVE,4,38,2022-12-21,81,Evaluation needs to be conducted in 2 years,15,4.0,4.0,5.0,4.0,5.0,2.0,,5.0,,,4.0,5.0,5.0,3.0,5.0,4.0,,3.0,3.0,,W0335,43.601468456,-79.505848789,POINT (304311.906 4828837.276)
2534408,4152943,2017.0,,1940.0,PRIVATE,4,Parkdale-High Park,340 HIGH PARK AVE,3,10,2022-12-21,66,Evaluation needs to be conducted in 2 years,14,3.0,3.0,3.0,3.0,2.0,5.0,,2.0,,,3.0,2.0,5.0,3.0,4.0,4.0,,4.0,,,S0424,43.665283034,-79.4705575166,POINT (307158.849 4835926.123)
2534409,4155465,2017.0,,1984.0,TCHC,1,Etobicoke North,10 HUMBERLINE DR,13,179,2022-12-21,70,Evaluation needs to be conducted in 2 years,18,4.0,3.0,5.0,3.0,4.0,4.0,3.0,4.0,4.0,4.0,4.0,3.0,5.0,2.0,3.0,3.0,,2.0,3.0,,W0125,43.7312483321,-79.6118048951,POINT (295777.595 4843260.265)
2534410,4152919,2017.0,,1910.0,PRIVATE,4,Parkdale-High Park,29 JANE ST,3,18,2022-12-21,79,Evaluation needs to be conducted in 2 years,14,4.0,4.0,5.0,4.0,3.0,2.0,,3.0,,,4.0,4.0,5.0,4.0,5.0,3.0,,5.0,,,S0426,43.6502220463,-79.4843917868,POINT (306043.476 4834252.689)
2534411,4155496,2017.0,,1952.0,PRIVATE,3,Etobicoke-Lakeshore,2543 LAKE SHORE BLVD W,3,55,2022-12-21,76,Evaluation needs to be conducted in 2 years,16,3.0,4.0,5.0,5.0,4.0,4.0,,4.0,,2.0,3.0,5.0,4.0,3.0,4.0,5.0,,3.0,3.0,,W0336,43.6095054646,-79.4897087235,POINT (305615.046 4829729.24)
2534412,4152940,2017.0,,1929.0,PRIVATE,4,Parkdale-High Park,2010 BLOOR ST W,3,24,2022-12-21,77,Evaluation needs to be conducted in 2 years,14,5.0,3.0,4.0,4.0,1.0,4.0,,3.0,,,4.0,3.0,5.0,5.0,4.0,4.0,,5.0,,,S0428,43.652849679,-79.469860803,POINT (307215.325 4834545.847)
2534413,4254274,2017.0,,1960.0,PRIVATE,3,Etobicoke-Lakeshore,143 EIGHTH ST,4,47,2022-12-21,81,Evaluation needs to be conducted in 2 years,15,4.0,3.0,5.0,4.0,5.0,2.0,,5.0,,,5.0,5.0,5.0,3.0,5.0,4.0,,3.0,3.0,,W0335,43.601842503,-79.506732984,POINT (304240.524 4828878.837)
2534414,4254276,2017.0,,1960.0,PRIVATE,3,Etobicoke-Lakeshore,147 EIGHTH ST,4,52,2022-12-21,80,Evaluation needs to be conducted in 2 years,15,4.0,3.0,5.0,4.0,5.0,2.0,,4.0,,,5.0,5.0,5.0,3.0,5.0,4.0,,3.0,3.0,,W0335,43.602248316,-79.506894937,POINT (304227.452 4828923.922)
2534415,5156182,2022.0,,1928.0,PRIVATE,13,Toronto Centre,140 WELLESLEY ST E,3,32,2022-12-21,83,Evaluation needs to be conducted in 2 years,15,5.0,4.0,5.0,4.0,4.0,4.0,,5.0,,,4.0,4.0,5.0,4.0,4.0,3.0,3.0,4.0,,,S1322,43.6667828801,-79.3769600054,POINT (314707.141 4836099.596)
2534416,5156157,2022.0,,1928.0,PRIVATE,13,Toronto Centre,142 WELLESLEY STREET E,3,34,2022-12-21,79,Evaluation needs to be conducted in 2 years,15,4.0,4.0,5.0,4.0,4.0,4.0,,5.0,,,4.0,4.0,4.0,4.0,3.0,3.0,3.0,4.0,,,S1322,43.6667348644,-79.3767474452,POINT (314724.292 4836094.286)
2534417,4155499,2017.0,,1952.0,PRIVATE,3,Etobicoke-Lakeshore,2529 LAKE SHORE BLVD W,4,61,2022-12-21,78,Evaluation needs to be conducted in 2 years,17,3.0,4.0,5.0,4.0,4.0,3.0,,4.0,,3.0,3.0,5.0,4.0,3.0,5.0,4.0,5.0,3.0,4.0,,W0336,43.6100510941,-79.4881859662,POINT (305737.962 4829789.871)
2534418,4155468,2017.0,,1994.0,TCHC,1,Etobicoke North,900 QUEENS PLATE DR,16,204,2022-12-21,58,Evaluation needs to be conducted in 1 year,18,4.0,3.0,2.0,1.0,3.0,2.0,3.0,3.0,4.0,,3.0,3.0,2.0,4.0,2.0,3.0,4.0,4.0,2.0,,W0127,43.720003879,-79.603372534,POINT (296449.206 4842001.861)
2534419,4155498,2017.0,,1952.0,PRIVATE,3,Etobicoke-Lakeshore,2531 LAKE SHORE BLVD W,6,110,2022-12-21,76,Evaluation needs to be conducted in 2 years,18,4.0,4.0,5.0,3.0,3.0,4.0,,3.0,4.0,2.0,3.0,5.0,4.0,3.0,4.0,4.0,5.0,3.0,5.0,,W0336,43.6100722111,-79.4872983362,POINT (305809.615 4829792.226)
2534420,4152912,2017.0,,1927.0,PRIVATE,4,Parkdale-High Park,117 RUNNYMEDE RD,4,42,2022-12-21,79,Evaluation needs to be conducted in 2 years,15,3.0,4.0,4.0,4.0,4.0,4.0,4.0,4.0,,,4.0,3.0,5.0,4.0,4.0,4.0,,4.0,,,S0430,43.6507245776,-79.4756999777,POINT (306744.649 4834308.671)
2534421,4155659,2017.0,,1967.0,TCHC,1,Etobicoke North,75 TANDRIDGE CRES,10,221,2022-12-21,57,Evaluation needs to be conducted in 1 year,18,4.0,2.0,2.0,1.0,4.0,4.0,1.0,3.0,4.0,,3.0,3.0,3.0,3.0,2.0,4.0,4.0,3.0,1.0,,W0131,43.728881268,-79.546722096,POINT (301020.19 4842993.242)
2534422,4155497,2017.0,,1952.0,PRIVATE,3,Etobicoke-Lakeshore,2537 LAKE SHORE BLVD W,3,75,2022-12-21,76,Evaluation needs to be conducted in 2 years,17,3.0,4.0,5.0,4.0,3.0,3.0,,4.0,,3.0,3.0,5.0,4.0,3.0,4.0,4.0,5.0,4.0,4.0,,W0336,43.6096967981,-79.4880818409,POINT (305746.372 4829750.512)
2534423,4154223,2017.0,,1972.0,PRIVATE,7,Humber River-Black Creek,160 CHALKFARM DR,23,466,2022-12-21,80,Evaluation needs to be conducted in 2 years,18,5.0,5.0,5.0,3.0,4.0,3.0,2.0,4.0,4.0,,4.0,5.0,5.0,4.0,5.0,5.0,3.0,3.0,3.0,,W0734,43.7243235641,-79.5147486407,POINT (303596.246 4842484.943)
2534424,4154222,2017.0,,1972.0,PRIVATE,7,Humber River-Black Creek,170 CHALKFARM DR,23,262,2022-12-21,76,Evaluation needs to be conducted in 2 years,18,4.0,5.0,5.0,3.0,4.0,2.0,2.0,3.0,3.0,,3.0,5.0,5.0,4.0,5.0,5.0,4.0,3.0,3.0,,W0734,43.7242716939,-79.5134047928,POINT (303704.517 4842479.159)
2534425,4154221,2017.0,,1972.0,PRIVATE,7,Humber River-Black Creek,180 CHALKFARM DR,23,263,2022-12-21,78,Evaluation needs to be conducted in 2 years,18,5.0,5.0,5.0,3.0,3.0,2.0,2.0,4.0,3.0,,3.0,5.0,5.0,4.0,5.0,4.0,4.0,3.0,5.0,,W0734,43.7240484372,-79.5118150261,POINT (303832.597 4842454.334)
2534426,4155241,2022.0,,1954.0,PRIVATE,3,Etobicoke-Lakeshore,183 BERRY RD,4,50,2022-12-21,79,Evaluation needs to be conducted in 2 years,17,4.0,3.0,5.0,4.0,3.0,4.0,,3.0,,3.0,3.0,5.0,5.0,3.0,4.0,5.0,5.0,4.0,4.0,,W0329,43.636390118,-79.4911570627,POINT (305497.797 4832715.966)
2534427,4155240,2017.0,,1954.0,PRIVATE,3,Etobicoke-Lakeshore,187 BERRY RD,4,30,2022-12-21,73,Evaluation needs to be conducted in 2 years,16,3.0,3.0,5.0,3.0,5.0,4.0,,4.0,,,3.0,3.0,4.0,2.0,3.0,3.0,4.0,4.0,5.0,,W0329,43.6361245275,-79.4924603306,POINT (305392.633 4832686.451)
2534428,4155245,2017.0,,1965.0,PRIVATE,3,Etobicoke-Lakeshore,177 BERRY RD,4,23,2022-12-21,86,Evaluation needs to be conducted in 3 years,17,4.0,5.0,5.0,4.0,5.0,2.0,,5.0,,5.0,4.0,4.0,5.0,4.0,5.0,4.0,4.0,4.0,4.0,,W0329,43.6368219752,-79.4892158365,POINT (305654.469 4832763.96)
2534429,4155244,2017.0,,1953.0,PRIVATE,3,Etobicoke-Lakeshore,179 BERRY RD,4,23,2022-12-21,80,Evaluation needs to be conducted in 2 years,17,5.0,4.0,5.0,4.0,4.0,2.0,,5.0,,4.0,4.0,4.0,5.0,3.0,5.0,3.0,4.0,3.0,4.0,,W0329,43.6366442394,-79.4899445536,POINT (305595.659 4832744.208)
2534430,4254270,2017.0,,1960.0,PRIVATE,3,Etobicoke-Lakeshore,139 EIGHTH ST,3,47,2022-12-21,80,Evaluation needs to be conducted in 2 years,15,4.0,3.0,5.0,4.0,4.0,2.0,,5.0,,,4.0,5.0,5.0,4.0,5.0,4.0,,3.0,3.0,,W0335,43.601494318,-79.506580956,POINT (304252.796 4828840.154)
2534431,4155658,2017.0,,1972.0,TCHC,1,Etobicoke North,44 WILLOWRIDGE RD,14,236,2022-12-20,68,Evaluation needs to be conducted in 2 years,19,3.0,3.0,5.0,3.0,4.0,4.0,4.0,4.0,2.0,,4.0,4.0,3.0,1.0,4.0,2.0,3.0,3.0,4.0,5.0,W0137,43.675646313,-79.569749625,POINT (299172.333 4837117.833)
2534432,4153165,2017.0,,1928.0,PRIVATE,9,Davenport,1019 BLOOR ST W,3,26,2022-12-20,74,Evaluation needs to be conducted in 2 years,13,4.0,4.0,2.0,4.0,,4.0,,5.0,,,3.0,5.0,5.0,2.0,4.0,2.0,,4.0,,,S0934,43.6606296548,-79.4308395547,POINT (310362.521 4835410.997)
2534433,4154261,2017.0,,1969.0,PRIVATE,7,Humber River-Black Creek,35 TOBERMORY DR,11,138,2022-12-20,86,Evaluation needs to be conducted in 3 years,18,5.0,5.0,5.0,4.0,5.0,4.0,4.0,3.0,5.0,,4.0,5.0,5.0,4.0,3.0,4.0,5.0,4.0,3.0,,W0725,43.761263869,-79.509638013,POINT (304008.298 4846589.696)
2534434,4153146,2017.0,,1915.0,PRIVATE,9,Davenport,1182 QUEEN ST W,3,25,2022-12-20,69,Evaluation needs to be conducted in 2 years,13,3.0,3.0,4.0,3.0,,3.0,,4.0,,,2.0,3.0,5.0,2.0,5.0,5.0,,3.0,,,S0937,43.6430244087,-79.4258043729,POINT (310770.385 4833455.456)
2534435,4154247,2017.0,,1970.0,PRIVATE,7,Humber River-Black Creek,2397 FINCH AVE W,11,121,2022-12-20,84,Evaluation needs to be conducted in 2 years,19,5.0,5.0,5.0,3.0,5.0,3.0,4.0,4.0,5.0,5.0,4.0,5.0,5.0,4.0,4.0,3.0,4.0,4.0,3.0,,W0727,43.751182532,-79.544580941,POINT (301194.093 4845470.67)
2534436,4156548,2017.0,,2010.0,PRIVATE,12,Toronto-St. Paul's,65 LILLIAN ST,10,141,2022-12-20,98,Evaluation needs to be conducted in 3 years,19,5.0,5.0,5.0,5.0,,5.0,5.0,5.0,5.0,5.0,4.0,5.0,5.0,5.0,5.0,5.0,5.0,5.0,4.0,5.0,S1228,43.7061847,-79.393224881,POINT (313389.587 4840476.209)
2534437,4250529,2017.0,,1965.0,PRIVATE,5,York South-Weston,2255 WESTON RD,12,101,2022-12-20,73,Evaluation needs to be conducted in 2 years,18,3.0,4.0,5.0,4.0,3.0,4.0,4.0,3.0,2.0,,3.0,4.0,5.0,4.0,3.0,3.0,5.0,4.0,3.0,,W0524,43.7045706478,-79.5274315017,POINT (302573.625 4840290.883)
2534438,4154217,2017.0,,1967.0,PRIVATE,7,Humber River-Black Creek,1750 WILSON AVE,3,10,2022-12-20,79,Evaluation needs to be conducted in 2 years,15,3.0,4.0,5.0,3.0,,3.0,,4.0,,,3.0,5.0,4.0,5.0,4.0,5.0,4.0,4.0,3.0,,W0734,43.7196469123,-79.5158634781,POINT (303506.321 4841965.429)
2534439,4154216,2017.0,,1973.0,PRIVATE,7,Humber River-Black Creek,1748 WILSON AVE,3,10,2022-12-20,84,Evaluation needs to be conducted in 2 years,16,3.0,5.0,5.0,4.0,4.0,4.0,,4.0,,,4.0,3.0,5.0,4.0,5.0,5.0,5.0,3.0,4.0,,W0734,43.7197126113,-79.5155827763,POINT (303528.939 4841972.723)
2534440,4155667,2017.0,,1971.0,TCHC,2,Etobicoke Centre,49 SCARLETTWOOD CRT,4,14,2022-12-20,71,Evaluation needs to be conducted in 2 years,16,3.0,2.0,3.0,2.0,4.0,4.0,,4.0,,,5.0,4.0,5.0,3.0,5.0,4.0,5.0,2.0,2.0,,W0224,43.693720176,-79.516153969,POINT (303485.161 4839089.472)
2534441,4154215,2017.0,,1964.0,PRIVATE,7,Humber River-Black Creek,1746 WILSON AVE,3,10,2022-12-20,81,Evaluation needs to be conducted in 2 years,16,3.0,5.0,5.0,4.0,3.0,4.0,,4.0,,,4.0,3.0,5.0,4.0,5.0,5.0,4.0,3.0,4.0,,W0734,43.7197813249,-79.5153042212,POINT (303551.384 4841980.352)
2534442,4154244,2017.0,,1959.0,PRIVATE,7,Humber River-Black Creek,2433 FINCH AVE W,6,117,2022-12-19,81,Evaluation needs to be conducted in 2 years,17,4.0,4.0,5.0,3.0,4.0,3.0,4.0,5.0,4.0,,3.0,5.0,5.0,4.0,4.0,4.0,,4.0,4.0,,W0727,43.749436556,-79.548159932,POINT (300917.135 4845264.927)
2534443,4154212,2018.0,,1953.0,PRIVATE,7,Humber River-Black Creek,1740 WILSON AVE,3,10,2022-12-19,75,Evaluation needs to be conducted in 2 years,16,3.0,4.0,5.0,3.0,3.0,4.0,,4.0,,,3.0,5.0,5.0,3.0,3.0,4.0,4.0,3.0,4.0,,W0734,43.7199693084,-79.5144469829,POINT (303620.457 4842001.222)
2534444,4154459,2017.0,,1966.0,PRIVATE,6,York Centre,41-51 BROOKWELL DR,4,48,2022-12-18,72,Evaluation needs to be conducted in 2 years,18,4.0,3.0,5.0,4.0,3.0,4.0,4.0,3.0,5.0,,4.0,4.0,5.0,3.0,3.0,3.0,3.0,2.0,3.0,,N0625,43.744081781,-79.495035439,POINT (305180.295 4844713.736)
2534445,4155873,2017.0,,1971.0,TCHC,5,York South-Weston,5 BELLEVUE CRES,21,326,2022-12-18,77,Evaluation needs to be conducted in 2 years,19,3.0,5.0,5.0,2.0,3.0,5.0,3.0,5.0,4.0,,2.0,5.0,3.0,3.0,3.0,5.0,5.0,5.0,4.0,3.0,W0527,43.6991400934,-79.5152292852,POINT (303556.925 4839687.3)
2534446,4156232,2017.0,,1969.0,TCHC,5,York South-Weston,101 HUMBER BLVD,14,246,2022-12-18,79,Evaluation needs to be conducted in 2 years,18,3.0,4.0,5.0,2.0,4.0,4.0,4.0,4.0,4.0,,3.0,4.0,5.0,4.0,4.0,4.0,5.0,5.0,3.0,,W0539,43.679802556,-79.4820189606,POINT (306234.164 4837538.915)
2534447,4155653,2017.0,,1968.0,TCHC,5,York South-Weston,190 WOOLNER AVE,16,304,2022-12-18,76,Evaluation needs to be conducted in 2 years,20,4.0,4.0,5.0,3.0,4.0,3.0,3.0,3.0,3.0,3.0,3.0,4.0,5.0,4.0,3.0,5.0,5.0,5.0,3.0,4.0,W0539,43.6726977491,-79.4906805093,POINT (305535.861 4836749.508)
2534448,4155913,2017.0,,1970.0,TCHC,5,York South-Weston,40 FALSTAFF AVE,19,224,2022-12-18,71,Evaluation needs to be conducted in 2 years,19,3.0,4.0,5.0,2.0,3.0,4.0,2.0,4.0,3.0,3.0,2.0,3.0,5.0,5.0,3.0,3.0,5.0,5.0,3.0,,W0522,43.7164444337,-79.504365644,POINT (304432.719 4841609.528)
2534449,4155352,2017.0,,1953.0,PRIVATE,1,Etobicoke North,17 RIVERVIEW HTS,4,14,2022-12-16,78,Evaluation needs to be conducted in 2 years,17,4.0,3.0,5.0,4.0,4.0,2.0,,5.0,,3.0,5.0,5.0,5.0,3.0,5.0,3.0,4.0,3.0,3.0,,W0136,43.701599074,-79.527506087,POINT (302574.77 4839958.836)
2534450,4155036,2017.0,,1960.0,PRIVATE,12,Toronto-St. Paul's,560 OAKWOOD AVE,3,24,2022-12-16,77,Evaluation needs to be conducted in 2 years,15,4.0,3.0,5.0,3.0,4.0,5.0,,4.0,,,3.0,4.0,4.0,4.0,5.0,3.0,,4.0,3.0,,S1222,43.693346722,-79.4414872013,POINT (309501.192 4839045.059)
2534451,4153116,2017.0,,1951.0,PRIVATE,9,Davenport,1095 ST CLAIR AVE W,3,11,2022-12-16,46,Building Audit,14,3.0,2.0,5.0,1.0,,4.0,,3.0,,,1.0,2.0,1.0,2.0,1.0,1.0,3.0,3.0,,,S0928,43.678247289,-79.440459346,POINT (309584.915 4837368.586)
2534452,4155391,2017.0,,1965.0,PRIVATE,2,Etobicoke Centre,336 THE WEST MALL,3,10,2022-12-16,82,Evaluation needs to be conducted in 2 years,17,4.0,4.0,5.0,4.0,4.0,2.0,,4.0,,5.0,4.0,5.0,5.0,4.0,5.0,4.0,3.0,4.0,4.0,,W0233,43.6378421454,-79.5644587873,POINT (299583.542 4832879.17)
2534453,4153159,2017.0,,1930.0,PRIVATE,9,Davenport,1044 COLLEGE ST,3,43,2022-12-16,79,Evaluation needs to be conducted in 2 years,15,5.0,3.0,5.0,5.0,2.0,4.0,,4.0,,,4.0,3.0,5.0,3.0,4.0,3.0,5.0,4.0,,,S0934,43.653199472,-79.430277706,POINT (310408.275 4834586.517)
2534454,4153107,2017.0,,1978.0,TCHC,9,Davenport,1884 DAVENPORT RD,9,186,2022-12-16,86,Evaluation needs to be conducted in 3 years,19,4.0,5.0,5.0,3.0,3.0,5.0,4.0,5.0,5.0,,4.0,5.0,5.0,4.0,5.0,4.0,4.0,4.0,3.0,5.0,S0926,43.670812011,-79.453749486,POINT (308498.716 4836548.304)
2534455,4155359,2017.0,,1963.0,PRIVATE,1,Etobicoke North,236 DIXON RD,13,123,2022-12-16,91,Evaluation needs to be conducted in 3 years,19,5.0,5.0,5.0,5.0,5.0,3.0,3.0,5.0,5.0,,5.0,5.0,5.0,4.0,4.0,5.0,5.0,3.0,4.0,5.0,W0135,43.6983362533,-79.5463927222,POINT (301045.006 4839598.982)
2534456,4155370,2017.0,,1968.0,PRIVATE,1,Etobicoke North,290 DIXON RD,6,49,2022-12-16,81,Evaluation needs to be conducted in 2 years,18,4.0,4.0,3.0,4.0,4.0,4.0,,5.0,4.0,4.0,3.0,5.0,5.0,4.0,5.0,5.0,5.0,3.0,2.0,,W0134,43.696913551,-79.549832217,POINT (300767.413 4839442.033)
2534457,4303769,2018.0,,1968.0,PRIVATE,2,Etobicoke Centre,63 CALLOWHILL DR,10,112,2022-12-16,67,Evaluation needs to be conducted in 2 years,20,4.0,3.0,5.0,2.0,3.0,3.0,2.0,4.0,4.0,2.0,2.0,4.0,4.0,2.0,4.0,4.0,3.0,4.0,3.0,5.0,W0221,,,POINT (299662.554 4837921.687)
2534458,4153158,2017.0,,1905.0,PRIVATE,9,Davenport,1 HAVELOCK ST,3,18,2022-12-16,76,Evaluation needs to be conducted in 2 years,15,4.0,3.0,5.0,4.0,4.0,4.0,,5.0,,,4.0,4.0,1.0,4.0,4.0,3.0,4.0,4.0,,,S0934,43.6531913676,-79.429272022,POINT (310489.665 4834584.737)
2534459,4152928,2017.0,,1924.0,PRIVATE,4,Parkdale-High Park,1778 BLOOR ST W,3,21,2022-12-16,76,Evaluation needs to be conducted in 2 years,14,4.0,4.0,5.0,3.0,3.0,2.0,,5.0,,,3.0,3.0,5.0,4.0,4.0,3.0,,5.0,,,S0428,43.654816959,-79.460940647,POINT (307934.791 4834764.694)
2534460,4152915,2017.0,,1923.0,PRIVATE,4,Parkdale-High Park,2520 BLOOR ST W,4,22,2022-12-16,70,Evaluation needs to be conducted in 2 years,16,4.0,3.0,5.0,3.0,1.0,3.0,,3.0,,,2.0,3.0,5.0,4.0,4.0,4.0,4.0,5.0,3.0,,S0430,43.6480530938,-79.4893694695,POINT (305641.932 4834011.683)
2534461,4152916,2017.0,,1935.0,PRIVATE,4,Parkdale-High Park,2526 BLOOR ST W,4,19,2022-12-16,79,Evaluation needs to be conducted in 2 years,14,4.0,4.0,4.0,2.0,2.0,4.0,,3.0,,,4.0,3.0,5.0,5.0,5.0,5.0,,5.0,,,S0430,43.648016589,-79.48963831,POINT (305608.671 4834006.596)
2534462,4153145,2017.0,,1932.0,PRIVATE,9,Davenport,10 BEACONSFIELD AVE,4,11,2022-12-16,75,Evaluation needs to be conducted in 2 years,15,4.0,4.0,5.0,4.0,4.0,4.0,,3.0,,,4.0,3.0,3.0,3.0,4.0,3.0,4.0,4.0,,,S0937,43.643432753,-79.4253164727,POINT (310809.709 4833500.853)
2534463,4153078,,,1932.0,PRIVATE,9,Davenport,301 LANSDOWNE AVE,5,35,2022-12-16,72,Evaluation needs to be conducted in 2 years,15,4.0,4.0,4.0,4.0,3.0,4.0,,3.0,,,2.0,3.0,3.0,4.0,3.0,4.0,,5.0,4.0,,S0933,43.6507303054,-79.4393963324,POINT (309673.184 4834310.706)
2534464,4154236,2017.0,,1971.0,PRIVATE,7,Humber River-Black Creek,101 DRIFTWOOD AVE,4,32,2022-12-16,59,Evaluation needs to be conducted in 1 year,18,4.0,3.0,2.0,2.0,3.0,3.0,3.0,3.0,2.0,,2.0,4.0,2.0,4.0,3.0,3.0,2.0,4.0,4.0,,W0730,43.754502975,-79.513280684,POINT (303714.863 4845838.642)
2534465,4153106,2017.0,,1992.0,SOCIAL HOUSING,9,Davenport,223 OSLER ST,4,13,2022-12-16,65,Evaluation needs to be conducted in 1 year,15,3.0,2.0,4.0,3.0,3.0,3.0,,4.0,,,3.0,2.0,5.0,4.0,2.0,3.0,3.0,5.0,,,S0926,43.669760121,-79.458975993,POINT (308092.381 4836424.835)
2534466,4154235,2017.0,,1970.0,PRIVATE,7,Humber River-Black Creek,45 DRIFTWOOD AVE,14,137,2022-12-15,78,Evaluation needs to be conducted in 2 years,18,4.0,4.0,4.0,4.0,4.0,4.0,4.0,4.0,4.0,,4.0,4.0,5.0,3.0,4.0,4.0,4.0,3.0,3.0,,W0730,43.7511483154,-79.5114796645,POINT (303860.109 4845464.976)
2534467,4154237,2017.0,,1970.0,PRIVATE,7,Humber River-Black Creek,50 DRIFTWOOD AVE,14,109,2022-12-15,94,Evaluation needs to be conducted in 3 years,18,5.0,5.0,5.0,4.0,4.0,5.0,,4.0,5.0,4.0,5.0,5.0,5.0,5.0,5.0,5.0,5.0,5.0,4.0,,W0730,43.7522915804,-79.51363863,POINT (303686.26 4845592.022)
2534468,4155434,2017.0,,1950.0,PRIVATE,1,Etobicoke North,14 TORBOLTON DR,3,16,2022-12-15,82,Evaluation needs to be conducted in 2 years,17,4.0,3.0,5.0,4.0,3.0,5.0,,5.0,,4.0,4.0,4.0,5.0,5.0,5.0,3.0,5.0,3.0,3.0,,W0130,43.7186903951,-79.5590804197,POINT (300024.003 4841860.823)
2534469,4155433,2017.0,,1959.0,PRIVATE,1,Etobicoke North,20 TORBOLTON DR,3,17,2022-12-15,84,Evaluation needs to be conducted in 2 years,16,4.0,5.0,4.0,4.0,4.0,3.0,,5.0,,,4.0,5.0,5.0,4.0,5.0,4.0,4.0,5.0,2.0,,W0130,43.719111062,-79.5589012928,POINT (300038.47 4841907.547)
2534470,4155431,2017.0,,1962.0,PRIVATE,1,Etobicoke North,40 TORBOLTON DR,3,17,2022-12-15,80,Evaluation needs to be conducted in 2 years,17,4.0,4.0,3.0,4.0,4.0,2.0,,5.0,,4.0,5.0,5.0,5.0,3.0,5.0,5.0,2.0,4.0,4.0,,W0130,43.7198931386,-79.5585311012,POINT (300068.36 4841994.413)
2534471,4153220,2017.0,,1955.0,PRIVATE,11,University-Rosedale,224 ST GEORGE ST,9,91,2022-12-15,90,Evaluation needs to be conducted in 3 years,18,5.0,5.0,5.0,3.0,5.0,3.0,4.0,4.0,5.0,5.0,5.0,5.0,5.0,4.0,5.0,5.0,,4.0,4.0,,S1127,43.671416122,-79.401975537,POINT (312688.81 4836612.569)
2534472,4155390,2017.0,,1962.0,PRIVATE,2,Etobicoke Centre,350 THE WEST MALL,6,55,2022-12-15,86,Evaluation needs to be conducted in 3 years,18,4.0,4.0,5.0,4.0,4.0,5.0,4.0,5.0,4.0,3.0,4.0,4.0,5.0,3.0,5.0,5.0,5.0,4.0,,,W0233,43.639035157,-79.564993488,POINT (299540.246 4833012.694)
2534473,4155389,2017.0,,1970.0,PRIVATE,2,Etobicoke Centre,361 THE WEST MALL,16,141,2022-12-15,67,Evaluation needs to be conducted in 2 years,19,4.0,3.0,4.0,3.0,3.0,3.0,3.0,3.0,4.0,3.0,2.0,4.0,5.0,4.0,3.0,3.0,3.0,4.0,3.0,,W0233,43.64088681,-79.564713058,POINT (299564.642 4833089.72)
2534474,4155394,2017.0,,1969.0,PRIVATE,2,Etobicoke Centre,545 THE WEST MALL,16,312,2022-12-15,83,Evaluation needs to be conducted in 2 years,19,4.0,5.0,5.0,4.0,3.0,4.0,4.0,4.0,4.0,3.0,4.0,4.0,5.0,4.0,5.0,4.0,5.0,4.0,4.0,,W0231,43.651935308,-79.568128213,POINT (299175.535 4834432.713)
2534475,4154993,2017.0,,1948.0,PRIVATE,12,Toronto-St. Paul's,1594 BATHURST ST,3,22,2022-12-15,80,Evaluation needs to be conducted in 2 years,15,5.0,4.0,5.0,4.0,4.0,4.0,,5.0,,,4.0,4.0,5.0,2.0,4.0,4.0,,4.0,2.0,,S1229,43.687863917,-79.4206373441,POINT (311182.487 4838437.357)
2534476,4155438,2017.0,,1950.0,PRIVATE,1,Etobicoke North,2366 ISLINGTON AVE,3,16,2022-12-15,83,Evaluation needs to be conducted in 2 years,16,4.0,5.0,3.0,4.0,4.0,2.0,,3.0,,,5.0,5.0,5.0,4.0,5.0,5.0,5.0,3.0,4.0,,W0130,43.7196647917,-79.5577092738,POINT (300134.561 4841968.994)
2534477,4154239,2017.0,,1975.0,PRIVATE,7,Humber River-Black Creek,2775 JANE ST,17,198,2022-12-15,83,Evaluation needs to be conducted in 2 years,18,4.0,4.0,4.0,4.0,5.0,4.0,4.0,4.0,4.0,,3.0,4.0,5.0,4.0,4.0,4.0,5.0,4.0,5.0,,W0730,43.7486644671,-79.5146201429,POINT (303607.148 4845189.076)
2534478,4154439,,,1954.0,PRIVATE,6,York Centre,2988 KEELE ST,3,11,2022-12-15,63,Evaluation needs to be conducted in 1 year,15,3.0,4.0,4.0,3.0,1.0,3.0,,3.0,,,3.0,4.0,5.0,4.0,3.0,2.0,,3.0,2.0,,N0627,43.736204601,-79.484886345,POINT (306001.724 4843805.792)
2534479,4154438,2018.0,,1952.0,PRIVATE,6,York Centre,2990 KEELE ST,3,11,2022-12-15,68,Evaluation needs to be conducted in 2 years,15,4.0,4.0,4.0,3.0,1.0,3.0,,3.0,,,3.0,4.0,5.0,4.0,3.0,3.0,,4.0,3.0,,N0627,43.736373339,-79.484931855,POINT (305998.055 4843824.537)
2534480,4154230,2017.0,,1971.0,PRIVATE,7,Humber River-Black Creek,2850 JANE ST,13,156,2022-12-15,84,Evaluation needs to be conducted in 2 years,19,4.0,4.0,4.0,3.0,5.0,5.0,4.0,4.0,5.0,,4.0,4.0,5.0,4.0,4.0,4.0,4.0,4.0,4.0,5.0,W0729,43.750094613,-79.516913628,POINT (303422.212 4845348.952)
2534481,4154232,2017.0,,1960.0,PRIVATE,7,Humber River-Black Creek,2900 JANE ST,14,183,2022-12-15,87,Evaluation needs to be conducted in 3 years,18,4.0,5.0,5.0,4.0,5.0,5.0,4.0,4.0,4.0,,4.0,5.0,5.0,4.0,5.0,4.0,3.0,4.0,4.0,,W0729,43.7531434812,-79.5178280471,POINT (303348.899 4845686.734)
2534482,4154260,2017.0,,1952.0,PRIVATE,7,Humber River-Black Creek,73 LOVILLA BLVD,3,16,2022-12-15,81,Evaluation needs to be conducted in 2 years,16,4.0,4.0,5.0,4.0,5.0,4.0,,3.0,,4.0,4.0,4.0,5.0,4.0,4.0,4.0,,4.0,3.0,,W0733,43.717730278,-79.5372015088,POINT (301786.885 4841753.108)
2534483,4153148,2017.0,,1986.0,SOCIAL HOUSING,9,Davenport,1289 DUNDAS ST W,7,149,2022-12-15,93,Evaluation needs to be conducted in 3 years,18,5.0,5.0,5.0,4.0,4.0,5.0,,5.0,5.0,5.0,4.0,4.0,5.0,5.0,5.0,4.0,,5.0,4.0,5.0,S0937,43.649212821,-79.425416097,POINT (310800.857 4834143.938)
2534484,4154377,2017.0,,1960.0,PRIVATE,6,York Centre,933-937 WILSON AVE,3,36,2022-12-15,69,Evaluation needs to be conducted in 2 years,14,3.0,4.0,3.0,3.0,,4.0,,2.0,,,4.0,4.0,5.0,4.0,3.0,3.0,,3.0,3.0,,N0632,43.729552423,-79.470558722,POINT (307126.804 4843063.258)
2534485,4153730,2017.0,,1954.0,PRIVATE,11,University-Rosedale,40 PARK RD,7,39,2022-12-15,88,Evaluation needs to be conducted in 3 years,17,5.0,5.0,5.0,3.0,4.0,5.0,,4.0,4.0,4.0,4.0,4.0,5.0,4.0,5.0,5.0,,4.0,5.0,,S1129,43.672981453,-79.384902282,POINT (314065.409 4836788.283)
2534486,4155731,2017.0,,1967.0,PRIVATE,12,Toronto-St. Paul's,330 SPADINA RD,22,141,2022-12-14,92,Evaluation needs to be conducted in 3 years,19,5.0,5.0,5.0,4.0,5.0,3.0,5.0,5.0,5.0,5.0,5.0,5.0,5.0,3.0,4.0,4.0,5.0,4.0,5.0,,S1236,43.683502319,-79.411166001,POINT (311926.227 4837949.908)
2534487,4156003,2017.0,,1969.0,PRIVATE,12,Toronto-St. Paul's,33 ROSEHILL AVE,28,216,2022-12-14,87,Evaluation needs to be conducted in 3 years,20,4.0,5.0,5.0,4.0,3.0,5.0,4.0,5.0,4.0,4.0,4.0,5.0,5.0,4.0,5.0,5.0,5.0,4.0,3.0,4.0,S1238,43.68644645,-79.39101627,POINT (313557.587 4838297.586)
2534488,4155756,,,1927.0,PRIVATE,12,Toronto-St. Paul's,6 PINEWOOD AVE,3,11,2022-12-14,56,Evaluation needs to be conducted in 1 year,14,3.0,3.0,2.0,2.0,,3.0,,4.0,,,2.0,3.0,5.0,2.0,2.0,2.0,3.0,3.0,,,S1229,43.682454983,-79.425041007,POINT (310827.715 4837837.046)
2534489,4154973,,,1925.0,PRIVATE,12,Toronto-St. Paul's,8 PINEWOOD AVE,3,11,2022-12-14,59,Evaluation needs to be conducted in 1 year,14,3.0,3.0,3.0,2.0,,3.0,,4.0,,,2.0,3.0,5.0,3.0,2.0,2.0,3.0,3.0,,,S1229,43.682584046,-79.425180892,POINT (310816.424 4837851.375)
2534490,5110249,2022.0,,2022.0,PRIVATE,2,Etobicoke Centre,200 REDPATH AVE,39,349,2022-12-14,99,Evaluation needs to be conducted in 3 years,18,5.0,5.0,5.0,5.0,,5.0,5.0,5.0,5.0,,5.0,5.0,5.0,5.0,5.0,5.0,5.0,5.0,4.0,5.0,W0232,,,POINT (313325.979 4840931.535)
2534491,4155460,2017.0,,1970.0,PRIVATE,1,Etobicoke North,40 STEVENSON RD,13,176,2022-12-14,61,Evaluation needs to be conducted in 1 year,18,4.0,3.0,2.0,3.0,3.0,2.0,2.0,2.0,5.0,,2.0,4.0,3.0,3.0,4.0,4.0,4.0,3.0,2.0,,W0123,43.744225114,-79.585660851,POINT (297884.978 4844700.386)
2534492,4233290,2017.0,,1984.0,SOCIAL HOUSING,5,York South-Weston,29 SOUTH STATION ST,13,128,2022-12-14,87,Evaluation needs to be conducted in 3 years,18,5.0,5.0,5.0,3.0,4.0,4.0,4.0,4.0,5.0,,3.0,4.0,5.0,5.0,5.0,4.0,,5.0,4.0,4.0,W0524,43.7009920215,-79.5153630558,POINT (303546.182 4839893.047)
2534493,4155456,2017.0,,1972.0,PRIVATE,1,Etobicoke North,1915 MARTIN GROVE RD,7,135,2022-12-14,69,Evaluation needs to be conducted in 2 years,18,3.0,2.0,3.0,2.0,4.0,2.0,3.0,4.0,5.0,,3.0,4.0,5.0,4.0,4.0,2.0,4.0,5.0,3.0,,W0123,43.7459657464,-79.5951234793,POINT (297123.337 4844893.655)
2534494,4171428,2017.0,,1970.0,PRIVATE,12,Toronto-St. Paul's,77 DAVISVILLE AVE,30,483,2022-12-14,92,Evaluation needs to be conducted in 3 years,20,5.0,5.0,5.0,4.0,4.0,4.0,5.0,5.0,5.0,5.0,4.0,5.0,5.0,4.0,5.0,5.0,4.0,5.0,4.0,4.0,S1233,,,POINT (313348.791 4839615.708)
2534495,4156014,2018.0,,1950.0,PRIVATE,5,York South-Weston,1 GREENBROOK DR,3,24,2022-12-14,94,Evaluation needs to be conducted in 3 years,16,5.0,5.0,5.0,5.0,5.0,3.0,5.0,5.0,,,5.0,5.0,5.0,5.0,5.0,4.0,,4.0,4.0,,W0532,43.696926149,-79.475711635,POINT (306735.523 4839446.054)
2534496,4167696,2017.0,,1955.0,PRIVATE,5,York South-Weston,2248 KEELE ST,3,11,2022-12-14,80,Evaluation needs to be conducted in 2 years,15,4.0,4.0,5.0,3.0,3.0,5.0,,4.0,,,4.0,3.0,5.0,4.0,5.0,4.0,,5.0,2.0,,W0529,43.7016828141,-79.476932762,POINT (306643.684 4839969.797)
2534497,4289106,2018.0,,2002.0,PRIVATE,5,York South-Weston,2252 KEELE ST,3,15,2022-12-14,89,Evaluation needs to be conducted in 3 years,16,4.0,5.0,5.0,4.0,4.0,5.0,,3.0,,,4.0,4.0,5.0,4.0,5.0,5.0,5.0,5.0,4.0,,W0529,43.701953817,-79.476918201,POINT (306648.927 4840009.031)
2534498,4155451,2017.0,,1978.0,PRIVATE,1,Etobicoke North,2667 KIPLING AVE,23,228,2022-12-14,76,Evaluation needs to be conducted in 2 years,18,4.0,3.0,5.0,3.0,3.0,4.0,2.0,3.0,5.0,,4.0,5.0,5.0,4.0,4.0,4.0,3.0,4.0,3.0,,W0124,43.748495858,-79.583366602,POINT (298070.253 4845174.644)
2534499,4155453,2018.0,,1976.0,PRIVATE,1,Etobicoke North,2737 KIPLING AVE,23,416,2022-12-14,79,Evaluation needs to be conducted in 2 years,17,4.0,3.0,5.0,3.0,3.0,4.0,,3.0,4.0,,4.0,5.0,5.0,4.0,4.0,5.0,3.0,4.0,4.0,,W0124,43.753301348,-79.586565549,POINT (297813.2 4845708.779)
2534500,4155034,2017.0,,1965.0,PRIVATE,12,Toronto-St. Paul's,640 LAUDER AVE,10,129,2022-12-14,77,Evaluation needs to be conducted in 2 years,19,5.0,5.0,5.0,3.0,4.0,3.0,3.0,4.0,5.0,4.0,2.0,3.0,5.0,4.0,3.0,4.0,4.0,5.0,2.0,,S1222,43.6937773713,-79.446160477,POINT (309124.445 4839092.664)
2534501,4155447,2018.0,,1965.0,PRIVATE,1,Etobicoke North,2435 KIPLING AVE,13,153,2022-12-14,82,Evaluation needs to be conducted in 2 years,18,4.0,5.0,4.0,4.0,5.0,2.0,4.0,3.0,5.0,,5.0,5.0,4.0,3.0,5.0,5.0,5.0,3.0,3.0,,W0124,43.7388442337,-79.578720865,POINT (298443.619 4844101.085)
2534502,4155615,2017.0,,1977.0,TCHC,12,Toronto-St. Paul's,70 DUNFIELD AVE,16,156,2022-12-14,79,Evaluation needs to be conducted in 2 years,17,5.0,4.0,5.0,1.0,5.0,4.0,5.0,3.0,3.0,,4.0,5.0,5.0,4.0,4.0,2.0,5.0,3.0,,,S1228,43.706491429,-79.395574467,POINT (313200.179 4840510.049)
2534503,4154378,2017.0,,1960.0,PRIVATE,6,York Centre,923-925 WILSON AVE,3,23,2022-12-14,77,Evaluation needs to be conducted in 2 years,13,4.0,4.0,4.0,3.0,,3.0,,3.0,,,4.0,5.0,5.0,4.0,3.0,3.0,,5.0,,,N0632,43.729832928,-79.468851985,POINT (307285.663 4843110.586)
2534504,4155449,2017.0,,1974.0,PRIVATE,1,Etobicoke North,18 PANORAMA CRT,17,204,2022-12-14,88,Evaluation needs to be conducted in 3 years,20,5.0,4.0,5.0,4.0,4.0,5.0,4.0,4.0,5.0,5.0,5.0,5.0,5.0,4.0,5.0,4.0,3.0,4.0,3.0,5.0,W0124,43.7471776431,-79.5819972103,POINT (298180.653 4845027.131)
2534505,4155039,2017.0,,1960.0,PRIVATE,12,Toronto-St. Paul's,1675 EGLINTON AVE W,3,37,2022-12-13,71,Evaluation needs to be conducted in 2 years,14,4.0,3.0,5.0,2.0,,2.0,,4.0,,,3.0,5.0,5.0,3.0,4.0,3.0,,3.0,4.0,,S1222,43.6962776134,-79.4460738363,POINT (309131.262 4839370.443)
2534506,4296588,2018.0,,1950.0,PRIVATE,12,Toronto-St. Paul's,701 EGLINTON AVE W,4,32,2022-12-13,78,Evaluation needs to be conducted in 2 years,18,4.0,5.0,5.0,3.0,2.0,4.0,2.0,5.0,,2.0,4.0,5.0,5.0,4.0,4.0,3.0,5.0,4.0,4.0,,S1225,43.701862989,-79.420565472,POINT (311172.27 4839988.114)
2534507,4155758,2017.0,,2005.0,PRIVATE,8,Eglinton-Lawrence,515 ROSEWELL AVE,7,89,2022-12-13,99,Evaluation needs to be conducted in 3 years,19,5.0,5.0,5.0,5.0,,5.0,5.0,5.0,5.0,5.0,5.0,5.0,5.0,5.0,4.0,5.0,5.0,5.0,5.0,5.0,N0829,43.7222177359,-79.4134144337,POINT (311760.877 4842254.524)
2534508,4240547,2017.0,,1976.0,PRIVATE,8,Eglinton-Lawrence,33 ORCHARD VIEW BLVD,17,327,2022-12-13,98,Evaluation needs to be conducted in 3 years,19,5.0,5.0,5.0,5.0,5.0,5.0,4.0,5.0,5.0,5.0,5.0,5.0,5.0,4.0,5.0,5.0,5.0,5.0,,5.0,N0833,43.707819465,-79.399390971,POINT (312892.413 4840657.216)
2534509,4152986,2019.0,,1959.0,PRIVATE,4,Parkdale-High Park,140 SPRINGHURST AVE,5,20,2022-12-13,80,Evaluation needs to be conducted in 2 years,16,4.0,4.0,5.0,3.0,4.0,3.0,,4.0,4.0,,3.0,5.0,5.0,4.0,5.0,4.0,,3.0,4.0,,S0437,43.6357144726,-79.4365059968,POINT (309907.601 4832642.713)
2534510,4153196,,,1910.0,PRIVATE,11,University-Rosedale,2 VERMONT AVE,3,16,2022-12-13,59,Evaluation needs to be conducted in 1 year,14,2.0,3.0,5.0,2.0,2.0,3.0,,3.0,,,2.0,3.0,5.0,2.0,3.0,3.0,,3.0,,,S1125,43.672241558,-79.414621827,POINT (311668.929 4836703.171)
2534511,4156298,2018.0,,1969.0,TCHC,10,Spadina-Fort York,170 VANAULEY WALK,6,40,2022-12-13,66,Evaluation needs to be conducted in 2 years,18,3.0,5.0,5.0,2.0,1.0,5.0,1.0,3.0,4.0,,2.0,4.0,4.0,3.0,3.0,4.0,3.0,4.0,3.0,,S1023,43.651687962,-79.400557945,POINT (312805.773 4834421)
2534512,4320792,,,1975.0,PRIVATE,12,Toronto-St. Paul's,21 VAUGHAN RD,23,173,2022-12-13,97,Evaluation needs to be conducted in 3 years,19,5.0,5.0,5.0,4.0,5.0,5.0,5.0,5.0,5.0,5.0,4.0,5.0,5.0,5.0,5.0,5.0,5.0,5.0,4.0,,S1235,43.6823113813,-79.418488924,POINT (311356.277 4837820.62)
2534513,4169241,2017.0,,1928.0,PRIVATE,12,Toronto-St. Paul's,42 VAUGHAN RD,3,15,2022-12-13,86,Evaluation needs to be conducted in 3 years,13,4.0,5.0,4.0,4.0,,4.0,,3.0,,,4.0,5.0,5.0,4.0,5.0,5.0,,4.0,,,S1235,43.68218998,-79.4195011613,POINT (311274.675 4837807.056)
2534514,4155815,2017.0,,1958.0,PRIVATE,12,Toronto-St. Paul's,208 VAUGHAN RD <<ROLL# CHG>>,4,25,2022-12-13,79,Evaluation needs to be conducted in 2 years,14,3.0,4.0,5.0,3.0,3.0,4.0,,4.0,,,4.0,4.0,5.0,3.0,5.0,4.0,,4.0,,,S1229,43.687290954,-79.423401887,POINT (310956.758 4838372.124)
2534515,4155056,2017.0,,1959.0,PRIVATE,8,Eglinton-Lawrence,1050 CASTLEFIELD AVE,5,64,2022-12-13,90,Evaluation needs to be conducted in 3 years,18,5.0,4.0,5.0,4.0,4.0,5.0,,5.0,4.0,4.0,5.0,4.0,5.0,4.0,5.0,4.0,5.0,5.0,4.0,,N0831,43.7010927419,-79.4506862658,POINT (308759.154 4839905.141)
2534516,4155783,2017.0,,1955.0,PRIVATE,8,Eglinton-Lawrence,101 MARLEE AVE,6,58,2022-12-13,84,Evaluation needs to be conducted in 2 years,17,5.0,4.0,5.0,4.0,4.0,4.0,,4.0,4.0,,4.0,4.0,5.0,4.0,5.0,4.0,3.0,4.0,4.0,,N0832,43.701461008,-79.440472942,POINT (309582.088 4839947.551)
2534517,4155030,2017.0,,1966.0,PRIVATE,12,Toronto-St. Paul's,795 VAUGHAN RD,8,106,2022-12-13,71,Evaluation needs to be conducted in 2 years,17,4.0,3.0,5.0,2.0,3.0,3.0,2.0,5.0,4.0,,4.0,2.0,2.0,4.0,5.0,4.0,,4.0,4.0,,S1222,43.6952829956,-79.4482618257,POINT (308954.953 4839259.834)
2534518,4155038,2017.0,,1968.0,PRIVATE,12,Toronto-St. Paul's,633 NORTHCLIFFE BLVD,11,86,2022-12-13,75,Evaluation needs to be conducted in 2 years,17,3.0,3.0,4.0,2.0,4.0,3.0,,5.0,4.0,,3.0,4.0,5.0,4.0,4.0,5.0,4.0,3.0,4.0,,S1222,43.695129788,-79.4469525657,POINT (309060.504 4839242.877)
2534519,4155033,2017.0,,1960.0,PRIVATE,12,Toronto-St. Paul's,682 NORTHCLIFFE BLVD,6,54,2022-12-13,77,Evaluation needs to be conducted in 2 years,18,5.0,4.0,5.0,4.0,4.0,3.0,,4.0,3.0,4.0,4.0,4.0,4.0,4.0,4.0,3.0,5.0,3.0,2.0,,S1222,43.695608909,-79.4478332709,POINT (308989.478 4839296.063)
2534520,4153059,2017.0,,1935.0,PRIVATE,4,Parkdale-High Park,34 NOBLE ST,3,18,2022-12-13,80,Evaluation needs to be conducted in 2 years,15,3.0,4.0,5.0,3.0,3.0,4.0,,4.0,4.0,,3.0,5.0,5.0,4.0,5.0,4.0,,4.0,,,S0435,43.6428677432,-79.431388625,POINT (310319.871 4833437.692)
2534521,4153499,2017.0,,1991.0,TCHC,13,Toronto Centre,460 JARVIS ST,10,212,2022-12-13,79,Evaluation needs to be conducted in 2 years,17,5.0,5.0,5.0,2.0,4.0,3.0,4.0,4.0,3.0,,3.0,4.0,3.0,5.0,4.0,4.0,5.0,4.0,,,S1326,43.6658437649,-79.3786635965,POINT (314569.899 4835995.071)
2534522,4153378,2017.0,,1983.0,TCHC,10,Spadina-Fort York,575 ADELAIDE ST W,11,150,2022-12-13,84,Evaluation needs to be conducted in 2 years,18,5.0,5.0,5.0,3.0,4.0,4.0,5.0,5.0,4.0,,4.0,4.0,5.0,4.0,4.0,4.0,3.0,4.0,4.0,,S1028,43.6445845561,-79.40368311,POINT (312554.891 4833630.519)
2534523,4168552,2017.0,,1968.0,PRIVATE,5,York South-Weston,2625 KEELE ST,3,10,2022-12-13,73,Evaluation needs to be conducted in 2 years,16,3.0,4.0,2.0,3.0,3.0,5.0,,5.0,,,3.0,4.0,5.0,4.0,3.0,4.0,2.0,3.0,5.0,,W0523,43.7206243827,-79.4802007293,POINT (306379.805 4842074.038)
2534524,4288751,,,1918.0,PRIVATE,12,Toronto-St. Paul's,1383 BATHURST ST,3,30,2022-12-13,86,Evaluation needs to be conducted in 3 years,14,4.0,5.0,5.0,4.0,3.0,4.0,,5.0,,,5.0,5.0,5.0,3.0,5.0,4.0,,3.0,,,S1236,43.6807035895,-79.4169896238,POINT (311477.346 4837642.107)
2534525,4153478,2017.0,,1995.0,TCHC,13,Toronto Centre,330 JARVIS ST,10,82,2022-12-13,84,Evaluation needs to be conducted in 2 years,18,4.0,4.0,5.0,4.0,3.0,5.0,4.0,4.0,4.0,,4.0,5.0,5.0,4.0,5.0,5.0,,4.0,3.0,4.0,S1326,43.6625963867,-79.3770996431,POINT (314696.547 4835634.501)
2534526,4153406,2017.0,,1993.0,TCHC,10,Spadina-Fort York,15 LARCH ST,3,20,2022-12-13,79,Evaluation needs to be conducted in 2 years,16,4.0,4.0,5.0,4.0,4.0,5.0,,3.0,,,4.0,4.0,2.0,4.0,4.0,4.0,4.0,4.0,4.0,,S1024,43.652655724,-79.39647886,POINT (313134.686 4834528.914)
2534527,4153143,2017.0,,1930.0,PRIVATE,10,Spadina-Fort York,115 EUCLID AVE,3,16,2022-12-13,83,Evaluation needs to be conducted in 2 years,16,4.0,4.0,5.0,4.0,4.0,4.0,,4.0,,,4.0,4.0,5.0,4.0,4.0,4.0,5.0,4.0,3.0,,S1022,43.6494076571,-79.4085775875,POINT (312159.435 4834165.952)
2534528,4153462,2017.0,,1970.0,TCHC,13,Toronto Centre,423 YONGE ST,20,340,2022-12-13,76,Evaluation needs to be conducted in 2 years,16,4.0,5.0,5.0,3.0,4.0,4.0,2.0,3.0,3.0,,2.0,5.0,5.0,4.0,4.0,4.0,,4.0,,,S1328,43.6602721446,-79.3823063131,POINT (314276.997 4835375.715)
2534529,4296586,2018.0,,1950.0,PRIVATE,12,Toronto-St. Paul's,699 EGLINTON AVE W,4,27,2022-12-13,76,Evaluation needs to be conducted in 2 years,17,4.0,5.0,5.0,3.0,2.0,4.0,,4.0,,2.0,4.0,5.0,5.0,4.0,3.0,3.0,5.0,4.0,3.0,,S1225,43.701892029,-79.420288428,POINT (311187.066 4839991.887)
2534530,4155031,2021.0,,1960.0,PRIVATE,12,Toronto-St. Paul's,1801 EGLINTON AVE W,3,41,2022-12-13,74,Evaluation needs to be conducted in 2 years,16,3.0,3.0,5.0,2.0,4.0,4.0,,4.0,5.0,,2.0,4.0,4.0,4.0,4.0,4.0,,4.0,3.0,,S1222,43.695756472,-79.449018677,POINT (308893.65 4839313.352)
2534531,4155536,2017.0,,1993.0,SOCIAL HOUSING,3,Etobicoke-Lakeshore,1 COIN ST,14,133,2022-12-12,92,Evaluation needs to be conducted in 3 years,18,4.0,5.0,4.0,4.0,4.0,5.0,4.0,5.0,5.0,,3.0,5.0,5.0,5.0,5.0,5.0,5.0,5.0,5.0,,W0335,43.6013523881,-79.5083940455,POINT (304106.691 4828823.445)
2534532,4153735,2017.0,,1950.0,PRIVATE,11,University-Rosedale,36 CASTLE FRANK RD,4,53,2022-12-12,91,Evaluation needs to be conducted in 3 years,18,5.0,5.0,5.0,4.0,5.0,5.0,,5.0,4.0,3.0,4.0,4.0,5.0,5.0,5.0,4.0,5.0,5.0,4.0,,S1131,43.676613159,-79.3697198649,POINT (315289.335 4837192.601)
2534533,4153737,2018.0,,1955.0,PRIVATE,11,University-Rosedale,45 GLEN RD,4,28,2022-12-12,81,Evaluation needs to be conducted in 2 years,18,4.0,5.0,5.0,3.0,4.0,3.0,3.0,4.0,5.0,,4.0,5.0,5.0,4.0,5.0,2.0,5.0,4.0,3.0,,S1131,43.6746275863,-79.3751897997,POINT (314848.578 4836971.335)
2534534,4155340,2017.0,,1966.0,PRIVATE,2,Etobicoke Centre,10 ALLANHURST DR,11,108,2022-12-12,81,Evaluation needs to be conducted in 2 years,18,3.0,4.0,5.0,3.0,4.0,4.0,4.0,4.0,5.0,,3.0,4.0,5.0,4.0,5.0,4.0,4.0,4.0,4.0,,W0230,43.6806469466,-79.5103162763,POINT (303952.614 4837632.73)
2534535,4283460,2018.0,,1950.0,PRIVATE,2,Etobicoke Centre,4 ANGLESEY BLVD,3,20,2022-12-12,84,Evaluation needs to be conducted in 2 years,16,4.0,4.0,5.0,4.0,4.0,2.0,,5.0,,5.0,4.0,4.0,5.0,4.0,5.0,4.0,,4.0,4.0,,W0229,43.6660993738,-79.5203712408,POINT (303141.444 4836016.728)
2534536,4155315,2017.0,,1960.0,PRIVATE,2,Etobicoke Centre,8 ANGLESEY BLVD,4,23,2022-12-12,85,Evaluation needs to be conducted in 2 years,17,4.0,5.0,5.0,4.0,4.0,2.0,,5.0,,5.0,4.0,4.0,5.0,4.0,5.0,5.0,3.0,4.0,4.0,,W0229,43.665842728,-79.5207230628,POINT (303113.062 4835988.223)
2534537,4154208,2017.0,,1955.0,PRIVATE,7,Humber River-Black Creek,1760 WILSON AVE,4,32,2022-12-12,66,Evaluation needs to be conducted in 2 years,16,4.0,3.0,2.0,2.0,3.0,4.0,,3.0,,3.0,4.0,4.0,5.0,5.0,3.0,3.0,,3.0,2.0,,W0734,43.7194896137,-79.5165478577,POINT (303451.176 4841947.966)
2534538,4154209,2017.0,,1954.0,PRIVATE,7,Humber River-Black Creek,1770 WILSON AVE,3,31,2022-12-12,70,Evaluation needs to be conducted in 2 years,16,3.0,4.0,2.0,2.0,3.0,4.0,,5.0,,3.0,3.0,4.0,5.0,5.0,3.0,5.0,,3.0,2.0,,W0734,43.7193022696,-79.5173252308,POINT (303388.542 4841927.165)
2534539,4154210,2017.0,,1954.0,PRIVATE,7,Humber River-Black Creek,1780 WILSON AVE,3,31,2022-12-12,75,Evaluation needs to be conducted in 2 years,15,5.0,5.0,3.0,3.0,5.0,4.0,,3.0,,,2.0,4.0,5.0,4.0,4.0,3.0,,4.0,2.0,,W0734,43.7191256895,-79.5181150514,POINT (303324.903 4841907.561)
2534540,4153736,2017.0,,1950.0,PRIVATE,11,University-Rosedale,83 ELM AVE,3,61,2022-12-12,88,Evaluation needs to be conducted in 3 years,18,4.0,5.0,5.0,4.0,5.0,3.0,,5.0,4.0,4.0,4.0,4.0,5.0,4.0,5.0,4.0,5.0,4.0,5.0,,S1131,43.6758876849,-79.3733881455,POINT (314993.648 4837111.547)
2534541,4153874,2017.0,,1937.0,PRIVATE,12,Toronto-St. Paul's,64 ST CLAIR AVE W,6,97,2022-12-12,75,Evaluation needs to be conducted in 2 years,17,3.0,4.0,5.0,4.0,3.0,5.0,,3.0,4.0,3.0,4.0,3.0,5.0,4.0,3.0,3.0,,4.0,4.0,,S1232,43.6878011506,-79.397437188,POINT (313052.884 4838432.402)
2534542,4153882,2017.0,,1938.0,PRIVATE,12,Toronto-St. Paul's,110 ST CLAIR AVE W,9,54,2022-12-12,80,Evaluation needs to be conducted in 2 years,17,4.0,4.0,5.0,3.0,5.0,3.0,,4.0,4.0,3.0,4.0,4.0,5.0,4.0,4.0,4.0,,4.0,4.0,,S1232,43.687399651,-79.398937696,POINT (312931.977 4838387.652)
2534543,4153733,2017.0,,1950.0,PRIVATE,11,University-Rosedale,464 SUMMERHILL AVE,3,19,2022-12-12,93,Evaluation needs to be conducted in 3 years,15,5.0,5.0,5.0,4.0,5.0,4.0,,5.0,,,4.0,5.0,5.0,4.0,5.0,5.0,,5.0,4.0,,S1130,43.686586172,-79.375116004,POINT (314852.311 4838300.882)
2534544,4155350,2017.0,,1970.0,PRIVATE,2,Etobicoke Centre,530 SCARLETT RD,12,106,2022-12-12,91,Evaluation needs to be conducted in 3 years,19,5.0,5.0,5.0,4.0,4.0,2.0,5.0,5.0,4.0,5.0,4.0,5.0,5.0,5.0,5.0,4.0,5.0,5.0,4.0,,W0224,43.6872970491,-79.5138247015,POINT (303669.893 4838371.568)
2534545,4155605,2017.0,,1970.0,TCHC,13,Toronto Centre,200 WELLESLEY ST E,29,719,2022-12-11,61,Evaluation needs to be conducted in 1 year,17,3.0,4.0,5.0,2.0,2.0,4.0,2.0,3.0,3.0,,2.0,3.0,3.0,3.0,3.0,3.0,3.0,4.0,,,S1323,43.6680628106,-79.3736609333,POINT (314972.971 4836242.189)
2534546,4153584,2017.0,,1960.0,PRIVATE,13,Toronto Centre,321 SHERBOURNE ST,7,67,2022-12-11,85,Evaluation needs to be conducted in 2 years,16,5.0,5.0,4.0,4.0,4.0,5.0,,3.0,5.0,,3.0,4.0,5.0,4.0,4.0,4.0,5.0,4.0,,,S1323,43.6618943157,-79.3721159385,POINT (315098.62 4835557.103)
2534547,4155601,2017.0,,1964.0,TCHC,13,Toronto Centre,275 SHUTER ST,16,299,2022-12-11,66,Evaluation needs to be conducted in 2 years,18,3.0,3.0,5.0,2.0,3.0,4.0,2.0,4.0,3.0,,2.0,3.0,4.0,4.0,3.0,3.0,4.0,4.0,3.0,,S1329,43.655849077,-79.367907347,POINT (315440.851 4834874.003)
2534548,4153588,2017.0,,1920.0,PRIVATE,13,Toronto Centre,391 SHERBOURNE ST,4,48,2022-12-11,73,Evaluation needs to be conducted in 2 years,14,4.0,4.0,3.0,3.0,3.0,4.0,,3.0,,,4.0,3.0,5.0,4.0,4.0,3.0,,4.0,,,S1323,43.6643516007,-79.3730396358,POINT (315023.704 4835829.981)
2534549,4153603,2018.0,,1948.0,PRIVATE,13,Toronto Centre,451 BLOOR ST E,6,41,2022-12-11,91,Evaluation needs to be conducted in 3 years,15,5.0,5.0,5.0,4.0,4.0,5.0,,4.0,,,4.0,5.0,5.0,4.0,4.0,5.0,,4.0,5.0,,S1323,43.671964764,-79.374579123,POINT (314898 4836676.533)
2534550,4155075,2017.0,,1958.0,PRIVATE,9,Davenport,554 HARVIE AVE,4,15,2022-12-10,91,Evaluation needs to be conducted in 3 years,16,4.0,5.0,5.0,5.0,4.0,5.0,,4.0,,,4.0,4.0,5.0,4.0,5.0,5.0,5.0,4.0,5.0,,S0921,43.691729939,-79.456536022,POINT (308287.926 4838865.668)
2534551,4155872,2017.0,,1910.0,PRIVATE,13,Toronto Centre,592 CHURCH ST,3,12,2022-12-10,81,Evaluation needs to be conducted in 2 years,14,3.0,4.0,5.0,5.0,4.0,4.0,,4.0,,,4.0,4.0,5.0,3.0,4.0,4.0,,4.0,,,S1322,43.667031521,-79.3817873,POINT (314317.525 4836127.624)
2534552,4153572,2017.0,,1980.0,TCHC,13,Toronto Centre,310 DUNDAS ST E,7,155,2022-12-10,72,Evaluation needs to be conducted in 2 years,18,3.0,4.0,5.0,4.0,3.0,4.0,3.0,3.0,3.0,,3.0,4.0,5.0,3.0,4.0,3.0,4.0,4.0,3.0,,S1329,43.6586470985,-79.3706942093,POINT (315213.842 4835196.523)
2534553,4156373,2017.0,,1963.0,TCHC,2,Etobicoke Centre,58 WATERTON RD,6,47,2022-12-10,73,Evaluation needs to be conducted in 2 years,17,3.0,3.0,5.0,3.0,3.0,4.0,3.0,4.0,3.0,,3.0,4.0,5.0,4.0,5.0,3.0,3.0,4.0,,,W0224,43.693937882,-79.516889548,POINT (303416.737 4839111.034)
2534554,4155600,2017.0,,1973.0,TCHC,13,Toronto Centre,155 SHERBOURNE ST,16,301,2022-12-10,68,Evaluation needs to be conducted in 2 years,18,3.0,3.0,5.0,3.0,4.0,4.0,3.0,3.0,3.0,,3.0,4.0,4.0,3.0,3.0,3.0,3.0,4.0,3.0,,S1329,43.6555922823,-79.3695219097,POINT (315308.923 4834857.287)
2534555,4155664,2019.0,,1972.0,PRIVATE,13,Toronto Centre,230 OAK ST,23,327,2022-12-10,79,Evaluation needs to be conducted in 2 years,19,4.0,5.0,5.0,3.0,3.0,5.0,3.0,5.0,4.0,3.0,4.0,3.0,5.0,5.0,4.0,4.0,5.0,4.0,1.0,,S1330,43.663569575,-79.357948805,POINT (316215.622 4835683.043)
2534556,4155402,2017.0,,1970.0,PRIVATE,2,Etobicoke Centre,1 RABBIT LANE,7,33,2022-12-10,76,Evaluation needs to be conducted in 2 years,17,4.0,4.0,5.0,3.0,4.0,4.0,3.0,4.0,4.0,,3.0,3.0,5.0,4.0,4.0,4.0,,4.0,3.0,,W0226,43.6584013749,-79.5675840655,POINT (299333.331 4835163.389)
2534557,4155591,2017.0,,1968.0,TCHC,9,Davenport,61 PELHAM PARK GDNS,17,352,2022-12-10,64,Evaluation needs to be conducted in 1 year,20,3.0,4.0,5.0,2.0,3.0,4.0,3.0,4.0,3.0,3.0,2.0,3.0,3.0,3.0,3.0,3.0,4.0,3.0,3.0,3.0,S0926,43.66925972,-79.457795659,POINT (308187.607 4836369.289)
2534558,4155590,2017.0,,1959.0,TCHC,9,Davenport,1525 DUNDAS ST W,6,106,2022-12-10,68,Evaluation needs to be conducted in 2 years,19,3.0,4.0,5.0,3.0,4.0,4.0,3.0,3.0,3.0,,3.0,4.0,3.0,3.0,3.0,4.0,3.0,4.0,3.0,3.0,S0936,43.6491637907,-79.4324188308,POINT (310236.184 4834137.085)
2534559,4155379,2017.0,,1968.0,PRIVATE,2,Etobicoke Centre,328 THE WEST MALL,3,32,2022-12-10,74,Evaluation needs to be conducted in 2 years,17,4.0,4.0,4.0,3.0,4.0,2.0,,4.0,3.0,4.0,3.0,4.0,5.0,4.0,4.0,4.0,3.0,4.0,,,W0233,43.6373133386,-79.564053632,POINT (299616.185 4832820.397)
2534560,4156583,2017.0,,1968.0,PRIVATE,2,Etobicoke Centre,60 CALLOWHILL DR,12,141,2022-12-10,69,Evaluation needs to be conducted in 2 years,17,3.0,4.0,5.0,1.0,3.0,3.0,3.0,3.0,3.0,,2.0,3.0,5.0,4.0,4.0,4.0,5.0,4.0,,,W0221,43.682156045,-79.5643051616,POINT (299650.165 4837805.9)
2534561,4156720,2017.0,,1962.0,PRIVATE,2,Etobicoke Centre,327 DIXON RD,6,55,2022-12-10,76,Evaluation needs to be conducted in 2 years,18,4.0,4.0,5.0,3.0,3.0,4.0,,5.0,4.0,3.0,2.0,4.0,5.0,4.0,5.0,4.0,2.0,4.0,3.0,,W0222,43.694646278,-79.555063829,POINT (300345.581 4839190.371)
2534562,4155396,2017.0,,1963.0,PRIVATE,2,Etobicoke Centre,70 DIXFIELD DR,12,141,2022-12-10,90,Evaluation needs to be conducted in 3 years,20,5.0,5.0,5.0,4.0,4.0,5.0,4.0,4.0,5.0,5.0,4.0,4.0,5.0,4.0,5.0,5.0,4.0,4.0,4.0,5.0,W0225,43.656041966,-79.572403682,POINT (298944.101 4834902.553)
2534563,4155406,2017.0,,1972.0,PRIVATE,2,Etobicoke Centre,675 MARTIN GROVE RD,11,126,2022-12-10,64,Evaluation needs to be conducted in 1 year,18,2.0,4.0,4.0,2.0,3.0,4.0,3.0,4.0,4.0,,2.0,3.0,5.0,3.0,3.0,3.0,3.0,3.0,3.0,,W0221,43.6811825432,-79.5647387346,POINT (299564.824 4837694.119)
2534564,4153593,2017.0,,1967.0,PRIVATE,13,Toronto Centre,730 ONTARIO ST,14,279,2022-12-10,76,Evaluation needs to be conducted in 2 years,18,4.0,5.0,5.0,4.0,3.0,5.0,4.0,3.0,4.0,3.0,4.0,3.0,4.0,4.0,4.0,4.0,,3.0,2.0,,S1323,43.6709382453,-79.3739456506,POINT (314949.518 4836561.613)
2534565,4153589,2017.0,,1934.0,PRIVATE,13,Toronto Centre,433 SHERBOURNE ST,4,48,2022-12-09,77,Evaluation needs to be conducted in 2 years,14,3.0,5.0,5.0,4.0,3.0,4.0,,3.0,,,3.0,4.0,5.0,4.0,4.0,3.0,,4.0,,,S1323,43.6654105039,-79.3734599636,POINT (314989.627 4835947.562)
2534566,4153142,2017.0,,1987.0,SOCIAL HOUSING,10,Spadina-Fort York,800 ADELAIDE ST W,3,50,2022-12-09,87,Evaluation needs to be conducted in 3 years,17,5.0,5.0,5.0,4.0,4.0,4.0,,4.0,4.0,,4.0,5.0,4.0,4.0,5.0,5.0,4.0,4.0,4.0,,S1028,43.6439718067,-79.4103609926,POINT (312016.23 4833561.862)
2534567,5156810,2023.0,,1973.0,TCHC,17,Don Valley North,11 FIELD SPARROWAY,4,16,2022-12-09,82,Evaluation needs to be conducted in 2 years,17,4.0,4.0,5.0,3.0,5.0,4.0,,4.0,,,4.0,5.0,4.0,3.0,5.0,4.0,3.0,4.0,4.0,5.0,N1721,43.790703691,-79.368721553,POINT (315336.455 4849896.841)
2534568,4153138,2017.0,,1989.0,SOCIAL HOUSING,10,Spadina-Fort York,24 SHAW ST,9,200,2022-12-09,86,Evaluation needs to be conducted in 3 years,17,5.0,5.0,5.0,4.0,4.0,5.0,3.0,4.0,5.0,,3.0,4.0,5.0,4.0,4.0,5.0,,4.0,4.0,,S1027,43.6423363643,-79.4160843491,POINT (311554.662 4833379.707)
2534569,4153464,,,1932.0,PRIVATE,11,University-Rosedale,469 PALMERSTON BLVD,3,10,2022-12-09,88,Evaluation needs to be conducted in 3 years,15,4.0,5.0,5.0,4.0,,5.0,,5.0,,,4.0,4.0,5.0,4.0,4.0,3.0,4.0,5.0,5.0,,S1133,43.6616251252,-79.4121412383,POINT (311870.487 4835523.005)
2534570,4153465,,,1907.0,PRIVATE,11,University-Rosedale,481 PALMERSTON BLVD,3,11,2022-12-09,76,Evaluation needs to be conducted in 2 years,15,4.0,5.0,5.0,4.0,2.0,5.0,,3.0,,,4.0,4.0,5.0,3.0,3.0,2.0,5.0,3.0,,,S1133,43.6621199142,-79.4122665445,POINT (311860.32 4835577.963)
2534571,4153377,2017.0,,2005.0,PRIVATE,10,Spadina-Fort York,50 PORTLAND ST,10,232,2022-12-09,99,Evaluation needs to be conducted in 3 years,17,5.0,5.0,5.0,5.0,,5.0,5.0,5.0,5.0,,4.0,5.0,5.0,5.0,5.0,5.0,,5.0,5.0,5.0,S1032,43.64339526,-79.399965439,POINT (312863.723 4833483.933)
2534572,4155809,2017.0,,1975.0,PRIVATE,13,Toronto Centre,191 SHERBOURNE ST,17,371,2022-12-09,77,Evaluation needs to be conducted in 2 years,19,4.0,5.0,5.0,3.0,4.0,4.0,3.0,2.0,4.0,,3.0,4.0,5.0,4.0,4.0,3.0,5.0,4.0,3.0,4.0,S1329,43.6567986347,-79.369926655,POINT (315276.068 4834991.252)
2534573,4156107,2017.0,,1975.0,PRIVATE,13,Toronto Centre,201 SHERBOURNE ST,23,225,2022-12-09,79,Evaluation needs to be conducted in 2 years,19,4.0,5.0,5.0,3.0,4.0,5.0,3.0,3.0,4.0,,3.0,3.0,5.0,4.0,3.0,4.0,5.0,4.0,3.0,5.0,S1329,43.6572944435,-79.3703063901,POINT (315245.354 4835046.287)
2534574,4153441,2017.0,,1809.0,PRIVATE,13,Toronto Centre,260 SHERBOURNE ST,4,10,2022-12-09,91,Evaluation needs to be conducted in 3 years,15,5.0,5.0,5.0,5.0,4.0,5.0,,5.0,,,5.0,4.0,5.0,4.0,4.0,4.0,,4.0,4.0,,S1328,43.6590989799,-79.3715644023,POINT (315143.579 4835246.618)
2534575,4153440,2017.0,,1838.0,PRIVATE,13,Toronto Centre,262 SHERBOURNE ST,3,10,2022-12-09,91,Evaluation needs to be conducted in 3 years,15,5.0,5.0,5.0,5.0,4.0,5.0,,5.0,,,5.0,4.0,5.0,4.0,4.0,4.0,,4.0,4.0,,S1328,43.6591658607,-79.3715926671,POINT (315141.288 4835254.045)
2534576,4153439,2017.0,,1974.0,PRIVATE,13,Toronto Centre,266 SHERBOURNE ST,13,121,2022-12-09,81,Evaluation needs to be conducted in 2 years,18,3.0,4.0,5.0,4.0,3.0,4.0,4.0,4.0,4.0,,3.0,5.0,5.0,3.0,4.0,4.0,5.0,4.0,5.0,,S1328,43.6592968038,-79.3718238702,POINT (315122.618 4835268.564)
2534577,4153583,2017.0,,1931.0,PRIVATE,13,Toronto Centre,317 SHERBOURNE ST,4,38,2022-12-09,83,Evaluation needs to be conducted in 2 years,14,5.0,4.0,5.0,5.0,3.0,5.0,,4.0,,,4.0,4.0,4.0,4.0,3.0,4.0,,4.0,,,S1323,43.6617262315,-79.3719593369,POINT (315111.279 4835538.449)
2534578,4153461,2017.0,,1969.0,PRIVATE,13,Toronto Centre,40 GERRARD ST E,33,447,2022-12-09,78,Evaluation needs to be conducted in 2 years,17,4.0,5.0,5.0,2.0,3.0,3.0,4.0,5.0,4.0,,3.0,4.0,5.0,3.0,4.0,4.0,,4.0,,4.0,S1328,43.6598447463,-79.3804771262,POINT (314424.604 4835328.44)
2534579,4153596,2017.0,,1963.0,PRIVATE,13,Toronto Centre,222 WELLESLEY ST E,7,69,2022-12-09,87,Evaluation needs to be conducted in 3 years,18,5.0,5.0,5.0,4.0,4.0,5.0,4.0,4.0,5.0,,4.0,5.0,5.0,4.0,3.0,4.0,4.0,4.0,4.0,,S1323,43.6678764377,-79.3727855269,POINT (315043.596 4836221.596)
2534580,4240827,2017.0,,1968.0,PRIVATE,13,Toronto Centre,260 WELLESLEY ST E,32,565,2022-12-09,69,Evaluation needs to be conducted in 2 years,19,4.0,4.0,5.0,2.0,3.0,4.0,3.0,3.0,4.0,3.0,3.0,3.0,4.0,3.0,4.0,4.0,4.0,4.0,2.0,,S1323,43.6690780597,-79.3717210615,POINT (315129.23 4836355.231)
2534581,4153448,2017.0,,1990.0,SOCIAL HOUSING,13,Toronto Centre,70 PEMBROKE ST,3,15,2022-12-09,58,Evaluation needs to be conducted in 1 year,16,3.0,4.0,4.0,2.0,1.0,2.0,,3.0,,,2.0,2.0,5.0,1.0,4.0,4.0,3.0,3.0,3.0,,S1328,43.6585068285,-79.3728346452,POINT (315041.226 4835180.667)
2534582,4153436,2017.0,,1885.0,PRIVATE,13,Toronto Centre,95 PEMBROKE ST,3,19,2022-12-09,64,Evaluation needs to be conducted in 1 year,14,2.0,4.0,5.0,2.0,3.0,4.0,,1.0,,,2.0,3.0,5.0,4.0,3.0,3.0,,4.0,,,S1328,43.6595601379,-79.3726424934,POINT (315056.547 4835297.718)
2534583,4154539,2018.0,,1960.0,PRIVATE,8,Eglinton-Lawrence,102 RAJAH ST,3,12,2022-12-09,78,Evaluation needs to be conducted in 2 years,17,4.0,4.0,4.0,4.0,3.0,4.0,,4.0,,3.0,4.0,4.0,5.0,4.0,4.0,4.0,4.0,4.0,3.0,,N0823,43.730483195,-79.438671101,POINT (309724.963 4843171.886)
2534584,4153502,2018.0,,1918.0,PRIVATE,13,Toronto Centre,125 EARL PL,4,15,2022-12-09,80,Evaluation needs to be conducted in 2 years,15,5.0,5.0,5.0,4.0,3.0,3.0,,4.0,,,3.0,3.0,5.0,4.0,4.0,4.0,4.0,4.0,,,S1322,43.6679778156,-79.3782190635,POINT (314612.894 4836239.946)
2534585,5156767,2023.0,,1973.0,TCHC,17,Don Valley North,3 FIELD SPARROWAY,4,16,2022-12-09,81,Evaluation needs to be conducted in 2 years,17,4.0,4.0,5.0,3.0,5.0,4.0,,4.0,,,3.0,5.0,4.0,3.0,5.0,4.0,3.0,4.0,4.0,5.0,N1721,43.790397172,-79.369820172,POINT (315304.089 4849852.917)
2534586,5156779,2023.0,,1973.0,TCHC,17,Don Valley North,5 FIELD SPARROWAY,4,16,2022-12-09,81,Evaluation needs to be conducted in 2 years,17,4.0,4.0,5.0,3.0,5.0,4.0,,4.0,,,3.0,5.0,4.0,3.0,5.0,4.0,3.0,4.0,4.0,5.0,N1721,43.790468768,-79.36951104,POINT (315314.161 4849856.735)
2534587,4154499,2017.0,,1964.0,PRIVATE,8,Eglinton-Lawrence,3690 BATHURST ST,7,47,2022-12-09,81,Evaluation needs to be conducted in 2 years,18,5.0,4.0,4.0,4.0,4.0,4.0,4.0,4.0,4.0,,3.0,4.0,5.0,4.0,4.0,4.0,4.0,4.0,4.0,,N0823,43.734306073,-79.433720291,POINT (310123.458 4843596.89)
2534588,4167699,2017.0,,1963.0,PRIVATE,13,Toronto Centre,50 ALEXANDER ST,29,217,2022-12-09,91,Evaluation needs to be conducted in 3 years,19,5.0,5.0,5.0,4.0,4.0,5.0,4.0,5.0,4.0,4.0,4.0,4.0,5.0,5.0,5.0,5.0,5.0,4.0,4.0,,S1326,,,POINT (314334.646 4835774.919)
2534589,4167700,2017.0,,1963.0,PRIVATE,13,Toronto Centre,55 MAITLAND PL,18,244,2022-12-09,91,Evaluation needs to be conducted in 3 years,19,5.0,5.0,5.0,4.0,4.0,4.0,5.0,5.0,4.0,4.0,4.0,4.0,5.0,4.0,5.0,5.0,5.0,4.0,5.0,,S1326,,,POINT (314334.646 4835774.919)
2534590,4155623,2017.0,,1955.0,TCHC,5,York South-Weston,1620 LAWRENCE AVE W,3,13,2022-12-09,67,Evaluation needs to be conducted in 2 years,18,3.0,5.0,5.0,2.0,2.0,4.0,,3.0,,2.0,1.0,4.0,2.0,2.0,4.0,5.0,4.0,3.0,5.0,4.0,W0526,43.7064506482,-79.4893217524,POINT (305627.966 4840469.963)
2534591,4155624,2017.0,,1955.0,TCHC,5,York South-Weston,1622 LAWRENCE AVE W,3,20,2022-12-09,67,Evaluation needs to be conducted in 2 years,17,2.0,4.0,2.0,2.0,2.0,4.0,,3.0,,2.0,2.0,4.0,5.0,4.0,4.0,4.0,4.0,4.0,5.0,,W0526,43.706344038,-79.4898898343,POINT (305599.298 4840487.469)
2534592,4153599,2017.0,,1964.0,PRIVATE,13,Toronto Centre,99 HOWARD ST,15,239,2022-12-09,80,Evaluation needs to be conducted in 2 years,18,5.0,5.0,5.0,3.0,3.0,5.0,4.0,3.0,4.0,,3.0,3.0,5.0,4.0,3.0,4.0,5.0,4.0,4.0,,S1323,43.671082603,-79.371532819,POINT (315143.797 4836578.915)
2534593,4269424,2017.0,,1950.0,SOCIAL HOUSING,14,Toronto-Danforth,793 GERRARD ST E,5,28,2022-12-09,63,Evaluation needs to be conducted in 1 year,13,3.0,4.0,4.0,3.0,,4.0,,3.0,,,3.0,3.0,3.0,2.0,3.0,3.0,,3.0,,,S1434,43.6667648172,-79.3456335069,POINT (317233.48 4836101.799)
2534594,4153531,2017.0,,1975.0,PRIVATE,13,Toronto Centre,33 ISABELLA ST,27,419,2022-12-09,84,Evaluation needs to be conducted in 2 years,18,5.0,5.0,5.0,3.0,3.0,5.0,4.0,4.0,5.0,,5.0,5.0,5.0,3.0,3.0,4.0,4.0,3.0,,5.0,S1322,43.667643942,-79.383679432,POINT (314164.83 4836195.449)
2534595,4153099,2017.0,,1985.0,PRIVATE,9,Davenport,685 LANSDOWNE AVE,3,30,2022-12-09,59,Evaluation needs to be conducted in 1 year,14,2.0,3.0,5.0,2.0,2.0,3.0,,3.0,,,2.0,2.0,5.0,3.0,3.0,2.0,,4.0,,,S0930,43.6590014035,-79.442459426,POINT (309425.457 4835229.411)
2534596,4153103,2017.0,,1973.0,PRIVATE,9,Davenport,1011 LANSDOWNE AVE,21,352,2022-12-09,71,Evaluation needs to be conducted in 2 years,17,4.0,5.0,5.0,3.0,3.0,4.0,2.0,3.0,2.0,,2.0,4.0,5.0,3.0,4.0,3.0,,4.0,4.0,,S0930,43.6672554091,-79.4464193523,POINT (309105.454 4836146.163)
2534597,4793995,2020.0,,1896.0,PRIVATE,11,University-Rosedale,55 MADISON AVE,4,12,2022-12-09,81,Evaluation needs to be conducted in 2 years,16,5.0,5.0,5.0,4.0,2.0,4.0,,4.0,,,4.0,3.0,5.0,4.0,4.0,4.0,4.0,4.0,4.0,,S1127,43.6700017507,-79.4035877513,POINT (312559.238 4836454.34)
2534598,4250590,2017.0,,2002.0,SOCIAL HOUSING,14,Toronto-Danforth,1117 DANFORTH AVE,3,26,2022-12-09,76,Evaluation needs to be conducted in 2 years,14,5.0,4.0,5.0,3.0,4.0,3.0,,5.0,,,3.0,3.0,2.0,4.0,5.0,4.0,,3.0,,,S1431,43.6807944237,-79.3340917426,POINT (318161.157 4837662.183)
2534599,4153463,2019.0,,1900.0,PRIVATE,11,University-Rosedale,378 MARKHAM ST,4,17,2022-12-09,59,Evaluation needs to be conducted in 1 year,15,3.0,2.0,5.0,2.0,3.0,4.0,,2.0,,,2.0,3.0,5.0,2.0,3.0,1.0,4.0,3.0,,,S1133,43.6584478213,-79.4103098841,POINT (312018.591 4835170.181)
2534600,4155035,2017.0,,1955.0,PRIVATE,12,Toronto-St. Paul's,641 VAUGHAN RD,4,45,2022-12-09,79,Evaluation needs to be conducted in 2 years,15,4.0,4.0,5.0,4.0,5.0,2.0,,5.0,,,4.0,4.0,5.0,4.0,3.0,4.0,,4.0,2.0,,S1222,43.6932352888,-79.4417901487,POINT (309476.779 4839032.662)
2534601,4155024,2017.0,,1957.0,PRIVATE,12,Toronto-St. Paul's,642 VAUGHAN RD,4,23,2022-12-09,74,Evaluation needs to be conducted in 2 years,14,4.0,5.0,5.0,3.0,5.0,3.0,,4.0,,,4.0,4.0,4.0,3.0,2.0,2.0,,4.0,,,S1222,43.6927850495,-79.4417092331,POINT (309481.606 4838982.16)
2534602,4153660,2017.0,,1930.0,PRIVATE,14,Toronto-Danforth,5 DONLANDS AVE,4,24,2022-12-09,72,Evaluation needs to be conducted in 2 years,13,5.0,5.0,5.0,3.0,,4.0,,3.0,,,3.0,5.0,1.0,3.0,2.0,4.0,,4.0,,,S1427,43.6807286698,-79.3371951618,POINT (317910.956 4837654.388)
2534603,4154516,2017.0,,1955.0,PRIVATE,8,Eglinton-Lawrence,54 NEPTUNE DR,3,11,2022-12-09,73,Evaluation needs to be conducted in 2 years,17,4.0,3.0,4.0,4.0,4.0,4.0,,3.0,,,3.0,3.0,5.0,4.0,3.0,4.0,3.0,4.0,2.0,5.0,N0823,43.732371076,-79.435213823,POINT (310003.317 4843381.834)
2534604,4261240,2017.0,,1950.0,PRIVATE,14,Toronto-Danforth,814 BROADVIEW AVE,3,24,2022-12-09,69,Evaluation needs to be conducted in 2 years,14,3.0,4.0,5.0,2.0,3.0,3.0,,2.0,,,2.0,4.0,3.0,4.0,4.0,5.0,,4.0,,,S1424,43.67792961,-79.3589234686,POINT (316159.639 4837340.27)
2534605,4154137,,,1955.0,PRIVATE,14,Toronto-Danforth,1243 BROADVIEW AVE,4,38,2022-12-09,93,Evaluation needs to be conducted in 3 years,16,5.0,5.0,5.0,5.0,4.0,4.0,,5.0,,5.0,5.0,4.0,5.0,5.0,5.0,4.0,,4.0,4.0,,S1421,43.6907938758,-79.3550051135,POINT (316473.095 4838770.007)
2534606,4153517,2017.0,,1981.0,PRIVATE,11,University-Rosedale,55 CHARLES ST W,32,147,2022-12-09,91,Evaluation needs to be conducted in 3 years,19,5.0,4.0,5.0,4.0,5.0,5.0,4.0,5.0,5.0,4.0,4.0,4.0,5.0,5.0,5.0,4.0,,5.0,4.0,4.0,S1136,43.6676849352,-79.3890195894,POINT (313734.416 4836198.46)
2534607,4153516,2017.0,,1977.0,PRIVATE,11,University-Rosedale,57 CHARLES ST W,21,250,2022-12-09,95,Evaluation needs to be conducted in 3 years,20,5.0,4.0,5.0,4.0,5.0,5.0,5.0,5.0,5.0,4.0,4.0,5.0,5.0,5.0,5.0,5.0,5.0,5.0,4.0,5.0,S1136,43.667772301,-79.389524395,POINT (313693.429 4836209.064)
2534608,4415827,2018.0,,1928.0,PRIVATE,13,Toronto Centre,438 JARVIS ST,3,30,2022-12-09,80,Evaluation needs to be conducted in 2 years,14,4.0,5.0,5.0,4.0,4.0,3.0,,4.0,,,3.0,4.0,5.0,3.0,4.0,4.0,,4.0,,,S1326,43.6654248364,-79.3783580132,POINT (314594.611 4835948.566)
2534609,4408652,2018.0,,1927.0,PRIVATE,11,University-Rosedale,69 BALDWIN ST,3,17,2022-12-09,76,Evaluation needs to be conducted in 2 years,15,4.0,4.0,5.0,4.0,3.0,4.0,,4.0,,,3.0,5.0,5.0,2.0,4.0,4.0,2.0,4.0,,,S1144,43.6554189056,-79.39535829,POINT (313224.942 4834835.082)
2534610,5156801,2023.0,,1973.0,TCHC,17,Don Valley North,7 FIELD SPARROWAY,4,16,2022-12-09,85,Evaluation needs to be conducted in 2 years,16,4.0,4.0,5.0,4.0,5.0,5.0,,4.0,,,4.0,5.0,5.0,3.0,5.0,4.0,3.0,4.0,4.0,,N1721,43.790476393,-79.369185506,POINT (315323.973 4849860.058)
2534611,4155252,2018.0,,1954.0,PRIVATE,3,Etobicoke-Lakeshore,167 STEPHEN DR,4,44,2022-12-08,87,Evaluation needs to be conducted in 3 years,18,5.0,5.0,5.0,3.0,5.0,4.0,,4.0,5.0,4.0,3.0,5.0,5.0,3.0,5.0,5.0,4.0,4.0,4.0,,W0327,43.6392913192,-79.4876408475,POINT (305781.53 4833038.307)
2534612,4153757,2017.0,,1957.0,PRIVATE,15,Don Valley West,657 BALLIOL ST,4,29,2022-12-08,75,Evaluation needs to be conducted in 2 years,16,4.0,3.0,4.0,3.0,3.0,3.0,,4.0,,,3.0,4.0,5.0,4.0,4.0,4.0,4.0,4.0,4.0,,N1534,43.701182908,-79.3760801591,POINT (314772.44 4839921.468)
2534613,4153445,2017.0,,1973.0,PRIVATE,13,Toronto Centre,100 PEMBROKE ST,11,102,2022-12-08,75,Evaluation needs to be conducted in 2 years,17,4.0,5.0,5.0,4.0,3.0,4.0,2.0,4.0,4.0,,3.0,4.0,4.0,4.0,4.0,4.0,,3.0,3.0,,S1328,43.6596580552,-79.3733983555,POINT (314995.566 4835308.503)
2534614,4153815,2017.0,,1965.0,PRIVATE,12,Toronto-St. Paul's,177 REDPATH AVE,17,148,2022-12-08,93,Evaluation needs to be conducted in 3 years,19,5.0,4.0,5.0,5.0,4.0,5.0,5.0,5.0,5.0,,4.0,4.0,5.0,5.0,4.0,4.0,5.0,5.0,4.0,5.0,S1221,43.709723233,-79.393094085,POINT (313399.624 4840869.343)
2534615,4153380,2020.0,,1991.0,SOCIAL HOUSING,10,Spadina-Fort York,163 PORTLAND ST,4,46,2022-12-08,82,Evaluation needs to be conducted in 2 years,19,5.0,5.0,5.0,4.0,4.0,5.0,3.0,4.0,4.0,3.0,3.0,4.0,5.0,4.0,4.0,4.0,,4.0,4.0,4.0,S1029,43.647261855,-79.400907613,POINT (312778.179 4833929.199)
2534616,4153458,2017.0,,2011.0,SOCIAL HOUSING,11,University-Rosedale,110 EDWARD ST,5,50,2022-12-08,92,Evaluation needs to be conducted in 3 years,18,4.0,5.0,5.0,4.0,5.0,4.0,5.0,5.0,5.0,,4.0,4.0,5.0,5.0,5.0,4.0,,5.0,4.0,5.0,S1145,43.6565407621,-79.3861458436,POINT (313967.909 4834960.727)
2534617,4156721,2017.0,,1950.0,PRIVATE,5,York South-Weston,2515 EGLINTON AVE W,4,34,2022-12-08,76,Evaluation needs to be conducted in 2 years,16,5.0,4.0,5.0,4.0,4.0,1.0,,4.0,,,5.0,4.0,5.0,2.0,3.0,5.0,5.0,2.0,3.0,,W0537,43.69095169,-79.470613783,POINT (307153.113 4838778.708)
2534618,4484430,2019.0,,1954.0,PRIVATE,14,Toronto-Danforth,39 TORRENS AVE,3,28,2022-12-08,74,Evaluation needs to be conducted in 2 years,17,3.0,3.0,4.0,4.0,4.0,4.0,,4.0,,3.0,3.0,4.0,4.0,4.0,4.0,3.0,5.0,4.0,3.0,,S1421,43.6903808073,-79.3529674197,POINT (316637.436 4838724.394)
2534619,4153442,2019.0,,1955.0,PRIVATE,13,Toronto Centre,256 SHERBOURNE ST,4,23,2022-12-08,91,Evaluation needs to be conducted in 3 years,15,4.0,5.0,5.0,4.0,4.0,5.0,,4.0,,,4.0,5.0,5.0,5.0,5.0,5.0,,4.0,4.0,,S1328,43.6589253856,-79.3715946717,POINT (315141.167 4835227.328)
2534620,4153472,2017.0,,1963.0,PRIVATE,13,Toronto Centre,392 SHERBOURNE ST,10,128,2022-12-08,89,Evaluation needs to be conducted in 3 years,20,5.0,5.0,5.0,4.0,5.0,4.0,5.0,4.0,5.0,3.0,4.0,5.0,5.0,4.0,4.0,4.0,5.0,4.0,4.0,5.0,S1326,43.6640961132,-79.3738282072,POINT (314960.149 4835801.501)
2534621,4153453,2017.0,,1939.0,PRIVATE,13,Toronto Centre,368 GEORGE ST,3,16,2022-12-08,77,Evaluation needs to be conducted in 2 years,15,4.0,3.0,5.0,3.0,5.0,4.0,,5.0,,,4.0,3.0,5.0,3.0,3.0,4.0,,4.0,3.0,,S1328,43.659740893,-79.374693208,POINT (314890.854 4835318.504)
2534622,4289265,,,,SOCIAL HOUSING,11,University-Rosedale,150 ELIZABETH ST,17,250,2022-12-08,87,Evaluation needs to be conducted in 3 years,18,4.0,5.0,5.0,4.0,3.0,5.0,3.0,4.0,5.0,,4.0,3.0,5.0,4.0,5.0,5.0,,5.0,5.0,4.0,S1145,43.656497402,-79.385911624,POINT (313986.547 4834956.89)
2534623,4155059,2017.0,,1960.0,PRIVATE,8,Eglinton-Lawrence,2495 DUFFERIN ST,3,15,2022-12-08,64,Evaluation needs to be conducted in 1 year,16,3.0,3.0,5.0,3.0,2.0,3.0,,3.0,,3.0,3.0,3.0,5.0,3.0,3.0,3.0,,3.0,3.0,,N0831,43.701718897,-79.451636758,POINT (308682.24 4839975.612)
